[{"pk": 1, "model": "schools.school", "fields": {"town": "Leipzig", "post_code": "04155", "name": "Aktive Schule Leipzig", "longitude": "12.3638552344", "school_type": 0, "street": "Eisenacher Stra\u00dfe 40", "latitude": "51.3615994"}}, {"pk": 2, "model": "schools.school", "fields": {"town": "Leipzig", "post_code": "04347", "name": "BIP-Kreativit\u00e4tsgrundschule und -gymnasium", "longitude": "12.4378569", "school_type": 0, "street": "Torgauer Stra\u00dfe 114", "latitude": "51.357294"}}, {"pk": 3, "model": "schools.school", "fields": {"town": "Leipzig", "post_code": "04209", "name": "Bisch\u00f6fliches Maria-Montessori-Schulzentrum Leipzig", "longitude": "12.2990833529", "school_type": 0, "street": "Alte Salzstra\u00dfe 61/65", "latitude": "51.3210045"}}, {"pk": 4, "model": "schools.school", "fields": {"town": "Leipzig", "post_code": "04107", "name": "Evangelisches Schulzentrum", "longitude": "12.3775171141", "school_type": 0, "street": "Schletterstra\u00dfe 7", "latitude": "51.3305282"}}, {"pk": 5, "model": "schools.school", "fields": {"town": "Leipzig", "post_code": "04103", "name": "Freie Grundschule \"Clara Schumann\" Leipzig", "longitude": "12.3911583486", "school_type": 0, "street": "Inselstra\u00dfe 18", "latitude": "51.3405124"}}, {"pk": 6, "model": "schools.school", "fields": {"town": "Leipzig", "post_code": "04279", "name": "Freie Grundschule \"Regenbogen\"", "longitude": "12.3849199876", "school_type": 0, "street": "Raschwitzer Stra\u00dfe 15", "latitude": "51.2951968"}}, {"pk": 7, "model": "schools.school", "fields": {"town": "Leipzig", "post_code": "04209", "name": "Freie Schule Leipzig e.V.", "longitude": "12.2959087497", "school_type": 0, "street": "Alte Salzstra\u00dfe 67", "latitude": "51.32032775"}}, {"pk": 8, "model": "schools.school", "fields": {"town": "Leipzig", "post_code": "04357", "name": "Freie Waldorfschule Leipzig", "longitude": "12.4056614302", "school_type": 0, "street": "Berthastra\u00dfe 15", "latitude": "51.3648936"}}, {"pk": 9, "model": "schools.school", "fields": {"town": "Leipzig", "post_code": "04279", "name": "Karl-Schubert-Schule", "longitude": "12.3739786", "school_type": 0, "street": "Raschwitzer Stra\u00dfe 4", "latitude": "51.2855487"}}, {"pk": 10, "model": "schools.school", "fields": {"town": "Leipzig", "post_code": "04229", "name": "Leipzig International School e.V.", "longitude": "12.3451058564", "school_type": 0, "street": "K\u00f6nneritzstra\u00dfe 47", "latitude": "51.3245807"}}, {"pk": 11, "model": "schools.school", "fields": {"town": "Leipzig", "post_code": "04207", "name": "100. Schule", "longitude": "12.2682684", "school_type": 0, "street": "Miltitzer Allee 1", "latitude": "51.3046982"}}, {"pk": 12, "model": "schools.school", "fields": {"town": "Leipzig", "post_code": "04249", "name": "120. Schule", "longitude": "12.3209317", "school_type": 0, "street": "Martin-Herrmann-Stra\u00dfe 1", "latitude": "51.3080429"}}, {"pk": 13, "model": "schools.school", "fields": {"town": "Leipzig", "post_code": "04179", "name": "157. Schule", "longitude": "12.3135829111", "school_type": 0, "street": "Hans-Driesch-Stra\u00dfe 41", "latitude": "51.34727525"}}, {"pk": 14, "model": "schools.school", "fields": {"town": "Leipzig", "post_code": "04179", "name": "172. Schule", "longitude": "12.320388", "school_type": 0, "street": "Prie\u00dfnitzstra\u00dfe 19", "latitude": "51.3441336"}}, {"pk": 15, "model": "schools.school", "fields": {"town": "Leipzig", "post_code": "04347", "name": "21. Schule", "longitude": "12.4116473", "school_type": 0, "street": "St\u00f6ckelstra\u00dfe 45", "latitude": "51.3561392"}}, {"pk": 16, "model": "schools.school", "fields": {"town": "Leipzig", "post_code": "04328", "name": "24. Schule", "longitude": "12.4499583142", "school_type": 0, "street": "D\u00f6llingstra\u00dfe 25", "latitude": "51.34808705"}}, {"pk": 17, "model": "schools.school", "fields": {"town": "Leipzig", "post_code": "04289", "name": "31. Schule", "longitude": "12.4361491723", "school_type": 0, "street": "Franzosenallee 21", "latitude": "51.30209895"}}, {"pk": 18, "model": "schools.school", "fields": {"town": "Leipzig", "post_code": "04129", "name": "33. Schule", "longitude": "12.3885507", "school_type": 0, "street": "Anhalter Stra\u00dfe 1", "latitude": "51.3616735"}}, {"pk": 19, "model": "schools.school", "fields": {"town": "Leipzig", "post_code": "04179", "name": "46. Schule", "longitude": "12.3168546981", "school_type": 0, "street": "Saalfelder Stra\u00dfe 29", "latitude": "51.3324455"}}, {"pk": 20, "model": "schools.school", "fields": {"town": "Leipzig", "post_code": "04249", "name": "60. Schule", "longitude": "12.312478595", "school_type": 0, "street": "Seumestra\u00dfe 93", "latitude": "51.2793741"}}, {"pk": 21, "model": "schools.school", "fields": {"town": "Leipzig", "post_code": "04357", "name": "66. Schule", "longitude": "12.4018029", "school_type": 0, "street": "Rosenowstra\u00dfe 56", "latitude": "51.3781895"}}, {"pk": 22, "model": "schools.school", "fields": {"town": "Leipzig", "post_code": "04317", "name": "77. Schule", "longitude": "12.4023438552", "school_type": 0, "street": "Riebeckstra\u00dfe 50", "latitude": "51.32673885"}}, {"pk": 23, "model": "schools.school", "fields": {"town": "Leipzig", "post_code": "04207", "name": "78. Schule", "longitude": "12.2622282", "school_type": 0, "street": "Binzer Stra\u00dfe 14", "latitude": "51.312124"}}, {"pk": 24, "model": "schools.school", "fields": {"town": "Leipzig", "post_code": "04279", "name": "8. Schule", "longitude": "12.3957424059", "school_type": 0, "street": "Wincklerstra\u00dfe 3/5", "latitude": "51.28661025"}}, {"pk": 25, "model": "schools.school", "fields": {"town": "Leipzig", "post_code": "04209", "name": "85. Schule", "longitude": "12.2920058653", "school_type": 0, "street": "Stuttgarter Allee 3", "latitude": "51.31407155"}}, {"pk": 26, "model": "schools.school", "fields": {"town": "Leipzig", "post_code": "04279", "name": "9. Schule", "longitude": "12.3905190257", "school_type": 0, "street": "Gersterstra\u00dfe 74", "latitude": "51.29298985"}}, {"pk": 27, "model": "schools.school", "fields": {"town": "Leipzig", "post_code": "04205", "name": "91. Schule", "longitude": "12.2749242723", "school_type": 0, "street": "Uranusstra\u00dfe 1", "latitude": "51.3209269"}}, {"pk": 28, "model": "schools.school", "fields": {"town": "Leipzig", "post_code": "04129", "name": "Adam-Friedrich-Oeser-Schule", "longitude": "12.3806187", "school_type": 0, "street": "Geibelstra\u00dfe 74", "latitude": "51.3637417"}}, {"pk": 29, "model": "schools.school", "fields": {"town": "Leipzig", "post_code": "04158", "name": "Alfred-K\u00e4stner-Schule", "longitude": "12.3344705844", "school_type": 0, "street": "Gartenwinkel 30", "latitude": "51.3923727"}}, {"pk": 30, "model": "schools.school", "fields": {"town": "Leipzig", "post_code": "04109", "name": "Anna-Magdalena-Bach-Schule", "longitude": "12.368352485", "school_type": 0, "street": "Manetstra\u00dfe 8", "latitude": "51.336296"}}, {"pk": 31, "model": "schools.school", "fields": {"town": "Leipzig", "post_code": "04347", "name": "Astrid-Lindgren-Schule", "longitude": "12.4194797", "school_type": 0, "street": "Volksgartenstra\u00dfe 16", "latitude": "51.3558394"}}, {"pk": 32, "model": "schools.school", "fields": {"town": "Leipzig", "post_code": "04315", "name": "August-Bebel-Schule", "longitude": "12.3990424", "school_type": 0, "street": "Husemannstra\u00dfe 2", "latitude": "51.3413561"}}, {"pk": 33, "model": "schools.school", "fields": {"town": "Leipzig", "post_code": "04329", "name": "Br\u00fcder-Grimm-Schule", "longitude": "12.4597839", "school_type": 0, "street": "Goldsternstra\u00dfe 23", "latitude": "51.3569491"}}, {"pk": 34, "model": "schools.school", "fields": {"town": "Leipzig", "post_code": "04129", "name": "Carl-von-Linn\u00e9-Schule", "longitude": "12.3862117119", "school_type": 0, "street": "Delitzscher Stra\u00dfe 110", "latitude": "51.3697835722"}}, {"pk": 35, "model": "schools.school", "fields": {"town": "Leipzig", "post_code": "04319", "name": "Christoph-Arnold-Schule", "longitude": "12.4862889", "school_type": 0, "street": "Gaswerksweg 1", "latitude": "51.3404842"}}, {"pk": 36, "model": "schools.school", "fields": {"town": "Leipzig", "post_code": "04155", "name": "Erich K\u00e4stner-Schule", "longitude": "12.3726765", "school_type": 0, "street": "Erfurter Stra\u00dfe 9", "latitude": "51.3601327"}}, {"pk": 37, "model": "schools.school", "fields": {"town": "Leipzig", "post_code": "04229", "name": "Erich-Zeigner-Schule", "longitude": "12.3407613", "school_type": 0, "street": "Erich-Zeigner-Allee 24/26", "latitude": "51.3329048"}}, {"pk": 38, "model": "schools.school", "fields": {"town": "Leipzig", "post_code": "04299", "name": "Franz-Mehring-Schule", "longitude": "12.4250043788", "school_type": 0, "street": "Gletschersteinstra\u00dfe 9", "latitude": "51.31658055"}}, {"pk": 39, "model": "schools.school", "fields": {"town": "Leipzig", "post_code": "04209", "name": "Friedrich-Fr\u00f6bel-Schule", "longitude": "12.2870296", "school_type": 0, "street": "Mannheimer Stra\u00dfe 128 c", "latitude": "51.3135303"}}, {"pk": 40, "model": "schools.school", "fields": {"town": "Leipzig", "post_code": "04155", "name": "Geschwister-Scholl-Schule", "longitude": "12.3657069", "school_type": 0, "street": "Elsbethstra\u00dfe 1", "latitude": "51.3634368"}}, {"pk": 41, "model": "schools.school", "fields": {"town": "Leipzig", "post_code": "04289", "name": "Heinrich-Mann-Schule", "longitude": "12.4330249", "school_type": 0, "street": "Schwarzenbergweg 4", "latitude": "51.2872818"}}, {"pk": 42, "model": "schools.school", "fields": {"town": "Leipzig", "post_code": "04209", "name": "Joachim-Ringelnatz-Schule", "longitude": "12.304294432", "school_type": 0, "street": "Gr\u00fcnauer Allee 35", "latitude": "51.31951965"}}, {"pk": 43, "model": "schools.school", "fields": {"town": "Leipzig", "post_code": "04109", "name": "Lessingschule", "longitude": "12.3627435792", "school_type": 0, "street": "Lessingstra\u00dfe 27", "latitude": "51.3420536"}}, {"pk": 44, "model": "schools.school", "fields": {"town": "Leipzig", "post_code": "04277", "name": "Marienbrunner Schule", "longitude": "12.4023032056", "school_type": 0, "street": "An der M\u00e4rchenwiese 49", "latitude": "51.3061549"}}, {"pk": 45, "model": "schools.school", "fields": {"town": "Leipzig", "post_code": "04103", "name": "Pablo-Neruda-Schule", "longitude": "12.3848816468", "school_type": 0, "street": "Tarostra\u00dfe 6", "latitude": "51.32610955"}}, {"pk": 46, "model": "schools.school", "fields": {"town": "Leipzig", "post_code": "04159", "name": "Paul-Robeson-Schule", "longitude": "12.3216402", "school_type": 0, "street": "Jungmannstra\u00dfe 5", "latitude": "51.3821039"}}, {"pk": 47, "model": "schools.school", "fields": {"town": "Leipzig", "post_code": "04229", "name": "Schule am Adler", "longitude": "12.3292579", "school_type": 0, "street": "Antonienstra\u00dfe 24", "latitude": "51.3205466"}}, {"pk": 48, "model": "schools.school", "fields": {"town": "Leipzig", "post_code": "04229", "name": "Schule am Auwald", "longitude": "12.3430001", "school_type": 0, "street": "R\u00f6delstra\u00dfe 6", "latitude": "51.3187939"}}, {"pk": 49, "model": "schools.school", "fields": {"town": "Leipzig", "post_code": "04107", "name": "Schule am Flo\u00dfplatz", "longitude": "12.372801737", "school_type": 0, "street": "Hohe Stra\u00dfe 45", "latitude": "51.329523"}}, {"pk": 50, "model": "schools.school", "fields": {"town": "Leipzig", "post_code": "04315", "name": "Schule am Rabet", "longitude": "12.4007960904", "school_type": 0, "street": "Eisenbahnstra\u00dfe 50", "latitude": "51.34526055"}}, {"pk": 51, "model": "schools.school", "fields": {"town": "Leipzig", "post_code": "04178", "name": "Schule B\u00f6hlitz-Ehrenberg", "longitude": "12.288814", "school_type": 0, "street": "Heinrich-Heine-Stra\u00dfe 64", "latitude": "51.3572445"}}, {"pk": 52, "model": "schools.school", "fields": {"town": "Leipzig", "post_code": "04277", "name": "Schule Connewitz", "longitude": "12.3793299", "school_type": 0, "street": "Zwenkauer Stra\u00dfe 35", "latitude": "51.3097542"}}, {"pk": 53, "model": "schools.school", "fields": {"town": "Leipzig", "post_code": "04178", "name": "Schule Gundorf", "longitude": "12.3009931", "school_type": 0, "street": "Leipziger Stra\u00dfe 210", "latitude": "51.3548332"}}, {"pk": 54, "model": "schools.school", "fields": {"town": "Leipzig", "post_code": "04288", "name": "Schule Holzhausen", "longitude": "12.4658203", "school_type": 0, "street": "St\u00f6tteritzer Landstra\u00dfe 21", "latitude": "51.3049215"}}, {"pk": 55, "model": "schools.school", "fields": {"town": "Leipzig", "post_code": "04288", "name": "Schule Liebertwolkwitz", "longitude": "12.4588135", "school_type": 0, "street": "Am Angerteich 2", "latitude": "51.2837931"}}, {"pk": 56, "model": "schools.school", "fields": {"town": "Leipzig", "post_code": "04205", "name": "Schule Miltitz", "longitude": "12.2615069", "school_type": 0, "street": "Gro\u00dfmiltitzer Stra\u00dfe 4", "latitude": "51.319427"}}, {"pk": 57, "model": "schools.school", "fields": {"town": "Leipzig", "post_code": "04316", "name": "Schule M\u00f6lkau", "longitude": "12.4448004", "school_type": 0, "street": "Schulstra\u00dfe 6", "latitude": "51.3315107"}}, {"pk": 58, "model": "schools.school", "fields": {"town": "Leipzig", "post_code": "04349", "name": "Schule Portitz", "longitude": "12.4528562", "school_type": 0, "street": "G\u00f6bschelwitzer Weg 1", "latitude": "51.3872849"}}, {"pk": 59, "model": "schools.school", "fields": {"town": "Leipzig", "post_code": "04178", "name": "Schule R\u00fcckmarsdorf", "longitude": "12.2519192", "school_type": 0, "street": "An der Friedenseiche 4", "latitude": "51.3436658"}}, {"pk": 60, "model": "schools.school", "fields": {"town": "Leipzig", "post_code": "04356", "name": "Schule Seehausen", "longitude": "12.3951403", "school_type": 0, "street": "Seehausener Allee 17", "latitude": "51.4000144"}}, {"pk": 61, "model": "schools.school", "fields": {"town": "Leipzig", "post_code": "04159", "name": "Schule Stahmeln", "longitude": "12.3050184", "school_type": 0, "street": "Stahmelner H\u00f6he 1", "latitude": "51.3806019"}}, {"pk": 62, "model": "schools.school", "fields": {"town": "Leipzig", "post_code": "04158", "name": "Schule Wiederitzsch", "longitude": "12.372415", "school_type": 0, "street": "Zur Schule 11", "latitude": "51.3935693"}}, {"pk": 63, "model": "schools.school", "fields": {"town": "Leipzig", "post_code": "04329", "name": "Theodor-K\u00f6rner-Schule", "longitude": "12.4644781", "school_type": 0, "street": "Schlehenweg 32", "latitude": "51.3531771"}}, {"pk": 64, "model": "schools.school", "fields": {"town": "Leipzig", "post_code": "04159", "name": "Wilhelm-Hauff-Schule", "longitude": "12.3450449", "school_type": 0, "street": "Diderot Stra\u00dfe 37", "latitude": "51.3716135"}}, {"pk": 65, "model": "schools.school", "fields": {"town": "Leipzig", "post_code": "04315", "name": "Wilhelm-Wander-Schule", "longitude": "12.4034875411", "school_type": 0, "street": "Schulze-Delitzsch-Stra\u00dfe 23", "latitude": "51.34846075"}}, {"pk": 66, "model": "schools.school", "fields": {"town": "Leipzig", "post_code": "04103", "name": "Musikalisch-Sportliches Gymnasium", "longitude": "12.3890014", "school_type": 2, "street": "Salomonstra\u00dfe 10", "latitude": "51.3396025"}}, {"pk": 67, "model": "schools.school", "fields": {"town": "Leipzig", "post_code": "04103", "name": "Anton-Philipp-Reclam-Schule", "longitude": "12.3857508151", "school_type": 2, "street": "Tarostra\u00dfe 4", "latitude": "51.32525735"}}, {"pk": 68, "model": "schools.school", "fields": {"town": "Leipzig", "post_code": "04357", "name": "Friedrich-Arnold-Brockhaus-Schule", "longitude": "12.4205124", "school_type": 2, "street": "Kieler Stra\u00dfe 72 b", "latitude": "51.3765742"}}, {"pk": 69, "model": "schools.school", "fields": {"town": "Leipzig", "post_code": "04155", "name": "Friedrich-Schiller-Schule", "longitude": "12.3657069", "school_type": 2, "street": "Elsbethstra\u00dfe 2/4", "latitude": "51.3634368"}}, {"pk": 70, "model": "schools.school", "fields": {"town": "Leipzig", "post_code": "04329", "name": "Gustav-Hertz-Schule", "longitude": "12.4692590873", "school_type": 2, "street": "Dachsstra\u00dfe 5", "latitude": "51.35700335"}}, {"pk": 71, "model": "schools.school", "fields": {"town": "Leipzig", "post_code": "04317", "name": "Humboldt-Schule", "longitude": "12.4070245271", "school_type": 2, "street": "M\u00f6biusstra\u00dfe 8", "latitude": "51.33020425"}}, {"pk": 72, "model": "schools.school", "fields": {"town": "Leipzig", "post_code": "04275", "name": "Immanuel-Kant-Schule", "longitude": "12.3724318995", "school_type": 2, "street": "Scharnhorststra\u00dfe 15", "latitude": "51.3199685"}}, {"pk": 73, "model": "schools.school", "fields": {"town": "Leipzig", "post_code": "04229", "name": "Johannes-Kepler-Schule", "longitude": "12.3243181249", "school_type": 2, "street": "Dieskaustra\u00dfe 76", "latitude": "51.3138036"}}, {"pk": 74, "model": "schools.school", "fields": {"town": "Leipzig", "post_code": "04105", "name": "Leibnizschule", "longitude": "12.3751616062", "school_type": 2, "street": "Nordplatz 13", "latitude": "51.3521584"}}, {"pk": 75, "model": "schools.school", "fields": {"town": "Leipzig", "post_code": "04277", "name": "Lousie-Otto-Peters-Schule", "longitude": "12.3830842454", "school_type": 2, "street": "Bornaische Stra\u00dfe 104", "latitude": "51.3017978"}}, {"pk": 76, "model": "schools.school", "fields": {"town": "Leipzig", "post_code": "04205", "name": "Max-Klinger-Schule", "longitude": "12.2662001", "school_type": 2, "street": "Miltitzer Weg 2/4", "latitude": "51.3222025"}}, {"pk": 77, "model": "schools.school", "fields": {"town": "Leipzig", "post_code": "04299", "name": "Neue Nikolaischule", "longitude": "12.4130203648", "school_type": 2, "street": "Sch\u00f6nbachstra\u00dfe 17", "latitude": "51.31776875"}}, {"pk": 78, "model": "schools.school", "fields": {"town": "Leipzig", "post_code": "04177", "name": "Robert-Schumann-Schule", "longitude": "12.3228074531", "school_type": 2, "street": "Demmeringstra\u00dfe 84", "latitude": "51.33543925"}}, {"pk": 79, "model": "schools.school", "fields": {"town": "Leipzig", "post_code": "04109", "name": "Thomasschule zu Leipzig", "longitude": "12.3594470706", "school_type": 2, "street": "Hillerstra\u00dfe 7", "latitude": "51.33651645"}}, {"pk": 80, "model": "schools.school", "fields": {"town": "Leipzig", "post_code": "04159", "name": "Werner-Heisenberg-Schule", "longitude": "12.3594470706", "school_type": 2, "street": "Renftstra\u00dfe 3", "latitude": "51.33651645"}}, {"pk": 81, "model": "schools.school", "fields": {"town": "Leipzig", "post_code": "04279", "name": "Wilhelm-Ostwald-Schule", "longitude": "12.402688", "school_type": 2, "street": "Willi-Bredel-Stra\u00dfe 13/15", "latitude": "51.3003624"}}, {"pk": 82, "model": "schools.school", "fields": {"town": "Leipzig", "post_code": "04319", "name": "Gymnasium Engelsdorf", "longitude": "12.4811639395", "school_type": 2, "street": "Arthur-Winkler-Stra\u00dfe 6", "latitude": "51.33525285"}}, {"pk": 83, "model": "schools.school", "fields": {"town": "Leipzig", "post_code": "04109", "name": "Landesgymnasium f\u00fcr Sport Leipzig", "longitude": "12.3557341494", "school_type": 2, "street": "Marschnerstra\u00dfe 30", "latitude": "51.33926765"}}]