[{"name": "Aktive Schule Leipzig", "post_code": "04155", "street": "Eisenacher Stra\u00dfe 40", "town": "Leipzig", "school_type": 0, "latitude": "51.3615994", "longitude": "12.3638552344"}, {"name": "BIP-Kreativit\u00e4tsgrundschule und -gymnasium", "post_code": "04347", "street": "Torgauer Stra\u00dfe 114", "town": "Leipzig", "school_type": 0, "latitude": "51.357294", "longitude": "12.4378569"}, {"name": "Bisch\u00f6fliches Maria-Montessori-Schulzentrum Leipzig", "post_code": "04209", "street": "Alte Salzstra\u00dfe 61/65", "town": "Leipzig", "school_type": 0, "latitude": "51.3210045", "longitude": "12.2990833529"}, {"name": "Evangelisches Schulzentrum", "post_code": "04107", "street": "Schletterstra\u00dfe 7", "town": "Leipzig", "school_type": 0, "latitude": "51.3305282", "longitude": "12.3775171141"}, {"name": "Freie Grundschule \"Clara Schumann\" Leipzig", "post_code": "04103", "street": "Inselstra\u00dfe 18", "town": "Leipzig", "school_type": 0, "latitude": "51.3405124", "longitude": "12.3911583486"}, {"name": "Freie Grundschule \"Regenbogen\"", "post_code": "04279", "street": "Raschwitzer Stra\u00dfe 15", "town": "Leipzig", "school_type": 0, "latitude": "51.2951968", "longitude": "12.3849199876"}, {"name": "Freie Schule Leipzig e.V.", "post_code": "04209", "street": "Alte Salzstra\u00dfe 67", "town": "Leipzig", "school_type": 0, "latitude": "51.32032775", "longitude": "12.2959087497"}, {"name": "Freie Waldorfschule Leipzig", "post_code": "04357", "street": "Berthastra\u00dfe 15", "town": "Leipzig", "school_type": 0, "latitude": "51.3648936", "longitude": "12.4056614302"}, {"name": "Karl-Schubert-Schule", "post_code": "04279", "street": "Raschwitzer Stra\u00dfe 4", "town": "Leipzig", "school_type": 0, "latitude": "51.2855487", "longitude": "12.3739786"}, {"name": "Leipzig International School e.V.", "post_code": "04229", "street": "K\u00f6nneritzstra\u00dfe 47", "town": "Leipzig", "school_type": 0, "latitude": "51.3245807", "longitude": "12.3451058564"}, {"name": "100. Schule", "post_code": "04207", "street": "Miltitzer Allee 1", "town": "Leipzig", "school_type": 0, "latitude": "51.3046982", "longitude": "12.2682684"}, {"name": "120. Schule", "post_code": "04249", "street": "Martin-Herrmann-Stra\u00dfe 1", "town": "Leipzig", "school_type": 0, "latitude": "51.3080429", "longitude": "12.3209317"}, {"name": "157. Schule", "post_code": "04179", "street": "Hans-Driesch-Stra\u00dfe 41", "town": "Leipzig", "school_type": 0, "latitude": "51.34727525", "longitude": "12.3135829111"}, {"name": "172. Schule", "post_code": "04179", "street": "Prie\u00dfnitzstra\u00dfe 19", "town": "Leipzig", "school_type": 0, "latitude": "51.3441336", "longitude": "12.320388"}, {"name": "21. Schule", "post_code": "04347", "street": "St\u00f6ckelstra\u00dfe 45", "town": "Leipzig", "school_type": 0, "latitude": "51.3561392", "longitude": "12.4116473"}, {"name": "24. Schule", "post_code": "04328", "street": "D\u00f6llingstra\u00dfe 25", "town": "Leipzig", "school_type": 0, "latitude": "51.34808705", "longitude": "12.4499583142"}, {"name": "31. Schule", "post_code": "04289", "street": "Franzosenallee 21", "town": "Leipzig", "school_type": 0, "latitude": "51.30209895", "longitude": "12.4361491723"}, {"name": "33. Schule", "post_code": "04129", "street": "Anhalter Stra\u00dfe 1", "town": "Leipzig", "school_type": 0, "latitude": "51.3616735", "longitude": "12.3885507"}, {"name": "46. Schule", "post_code": "04179", "street": "Saalfelder Stra\u00dfe 29", "town": "Leipzig", "school_type": 0, "latitude": "51.3324455", "longitude": "12.3168546981"}, {"name": "60. Schule", "post_code": "04249", "street": "Seumestra\u00dfe 93", "town": "Leipzig", "school_type": 0, "latitude": "51.2793741", "longitude": "12.312478595"}, {"name": "66. Schule", "post_code": "04357", "street": "Rosenowstra\u00dfe 56", "town": "Leipzig", "school_type": 0, "latitude": "51.3781895", "longitude": "12.4018029"}, {"name": "77. Schule", "post_code": "04317", "street": "Riebeckstra\u00dfe 50", "town": "Leipzig", "school_type": 0, "latitude": "51.32673885", "longitude": "12.4023438552"}, {"name": "78. Schule", "post_code": "04207", "street": "Binzer Stra\u00dfe 14", "town": "Leipzig", "school_type": 0, "latitude": "51.312124", "longitude": "12.2622282"}, {"name": "8. Schule", "post_code": "04279", "street": "Wincklerstra\u00dfe 3/5", "town": "Leipzig", "school_type": 0, "latitude": "51.28661025", "longitude": "12.3957424059"}, {"name": "85. Schule", "post_code": "04209", "street": "Stuttgarter Allee 3", "town": "Leipzig", "school_type": 0, "latitude": "51.31407155", "longitude": "12.2920058653"}, {"name": "9. Schule", "post_code": "04279", "street": "Gersterstra\u00dfe 74", "town": "Leipzig", "school_type": 0, "latitude": "51.29298985", "longitude": "12.3905190257"}, {"name": "91. Schule", "post_code": "04205", "street": "Uranusstra\u00dfe 1", "town": "Leipzig", "school_type": 0, "latitude": "51.3209269", "longitude": "12.2749242723"}, {"name": "Adam-Friedrich-Oeser-Schule", "post_code": "04129", "street": "Geibelstra\u00dfe 74", "town": "Leipzig", "school_type": 0, "latitude": "51.3637417", "longitude": "12.3806187"}, {"name": "Alfred-K\u00e4stner-Schule", "post_code": "04158", "street": "Gartenwinkel 30", "town": "Leipzig", "school_type": 0, "latitude": "51.3923727", "longitude": "12.3344705844"}, {"name": "Anna-Magdalena-Bach-Schule", "post_code": "04109", "street": "Manetstra\u00dfe 8", "town": "Leipzig", "school_type": 0, "latitude": "51.336296", "longitude": "12.368352485"}, {"name": "Astrid-Lindgren-Schule", "post_code": "04347", "street": "Volksgartenstra\u00dfe 16", "town": "Leipzig", "school_type": 0, "latitude": "51.3558394", "longitude": "12.4194797"}, {"name": "August-Bebel-Schule", "post_code": "04315", "street": "Husemannstra\u00dfe 2", "town": "Leipzig", "school_type": 0, "latitude": "51.3413561", "longitude": "12.3990424"}, {"name": "Br\u00fcder-Grimm-Schule", "post_code": "04329", "street": "Goldsternstra\u00dfe 23", "town": "Leipzig", "school_type": 0, "latitude": "51.3569491", "longitude": "12.4597839"}, {"name": "Carl-von-Linn\u00e9-Schule", "post_code": "04129", "street": "Delitzscher Stra\u00dfe 110", "town": "Leipzig", "school_type": 0, "latitude": "51.3697835722", "longitude": "12.3862117119"}, {"name": "Christoph-Arnold-Schule", "post_code": "04319", "street": "Gaswerksweg 1", "town": "Leipzig", "school_type": 0, "latitude": "51.3404842", "longitude": "12.4862889"}, {"name": "Erich K\u00e4stner-Schule", "post_code": "04155", "street": "Erfurter Stra\u00dfe 9", "town": "Leipzig", "school_type": 0, "latitude": "51.3601327", "longitude": "12.3726765"}, {"name": "Erich-Zeigner-Schule", "post_code": "04229", "street": "Erich-Zeigner-Allee 24/26", "town": "Leipzig", "school_type": 0, "latitude": "51.3329048", "longitude": "12.3407613"}, {"name": "Franz-Mehring-Schule", "post_code": "04299", "street": "Gletschersteinstra\u00dfe 9", "town": "Leipzig", "school_type": 0, "latitude": "51.31658055", "longitude": "12.4250043788"}, {"name": "Friedrich-Fr\u00f6bel-Schule", "post_code": "04209", "street": "Mannheimer Stra\u00dfe 128 c", "town": "Leipzig", "school_type": 0, "latitude": "51.3135303", "longitude": "12.2870296"}, {"name": "Geschwister-Scholl-Schule", "post_code": "04155", "street": "Elsbethstra\u00dfe 1", "town": "Leipzig", "school_type": 0, "latitude": "51.3634368", "longitude": "12.3657069"}, {"name": "Heinrich-Mann-Schule", "post_code": "04289", "street": "Schwarzenbergweg 4", "town": "Leipzig", "school_type": 0, "latitude": "51.2872818", "longitude": "12.4330249"}, {"name": "Joachim-Ringelnatz-Schule", "post_code": "04209", "street": "Gr\u00fcnauer Allee 35", "town": "Leipzig", "school_type": 0, "latitude": "51.31951965", "longitude": "12.304294432"}, {"name": "Lessingschule", "post_code": "04109", "street": "Lessingstra\u00dfe 27", "town": "Leipzig", "school_type": 0, "latitude": "51.3420536", "longitude": "12.3627435792"}, {"name": "Marienbrunner Schule", "post_code": "04277", "street": "An der M\u00e4rchenwiese 49", "town": "Leipzig", "school_type": 0, "latitude": "51.3061549", "longitude": "12.4023032056"}, {"name": "Pablo-Neruda-Schule", "post_code": "04103", "street": "Tarostra\u00dfe 6", "town": "Leipzig", "school_type": 0, "latitude": "51.32610955", "longitude": "12.3848816468"}, {"name": "Paul-Robeson-Schule", "post_code": "04159", "street": "Jungmannstra\u00dfe 5", "town": "Leipzig", "school_type": 0, "latitude": "51.3821039", "longitude": "12.3216402"}, {"name": "Schule am Adler", "post_code": "04229", "street": "Antonienstra\u00dfe 24", "town": "Leipzig", "school_type": 0, "latitude": "51.3205466", "longitude": "12.3292579"}, {"name": "Schule am Auwald", "post_code": "04229", "street": "R\u00f6delstra\u00dfe 6", "town": "Leipzig", "school_type": 0, "latitude": "51.3187939", "longitude": "12.3430001"}, {"name": "Schule am Flo\u00dfplatz", "post_code": "04107", "street": "Hohe Stra\u00dfe 45", "town": "Leipzig", "school_type": 0, "latitude": "51.329523", "longitude": "12.372801737"}, {"name": "Schule am Rabet", "post_code": "04315", "street": "Eisenbahnstra\u00dfe 50", "town": "Leipzig", "school_type": 0, "latitude": "51.34526055", "longitude": "12.4007960904"}, {"name": "Schule B\u00f6hlitz-Ehrenberg", "post_code": "04178", "street": "Heinrich-Heine-Stra\u00dfe 64", "town": "Leipzig", "school_type": 0, "latitude": "51.3572445", "longitude": "12.288814"}, {"name": "Schule Connewitz", "post_code": "04277", "street": "Zwenkauer Stra\u00dfe 35", "town": "Leipzig", "school_type": 0, "latitude": "51.3097542", "longitude": "12.3793299"}, {"name": "Schule Gundorf", "post_code": "04178", "street": "Leipziger Stra\u00dfe 210", "town": "Leipzig", "school_type": 0, "latitude": "51.3548332", "longitude": "12.3009931"}, {"name": "Schule Holzhausen", "post_code": "04288", "street": "St\u00f6tteritzer Landstra\u00dfe 21", "town": "Leipzig", "school_type": 0, "latitude": "51.3049215", "longitude": "12.4658203"}, {"name": "Schule Liebertwolkwitz", "post_code": "04288", "street": "Am Angerteich 2", "town": "Leipzig", "school_type": 0, "latitude": "51.2837931", "longitude": "12.4588135"}, {"name": "Schule Miltitz", "post_code": "04205", "street": "Gro\u00dfmiltitzer Stra\u00dfe 4", "town": "Leipzig", "school_type": 0, "latitude": "51.319427", "longitude": "12.2615069"}, {"name": "Schule M\u00f6lkau", "post_code": "04316", "street": "Schulstra\u00dfe 6", "town": "Leipzig", "school_type": 0, "latitude": "51.3315107", "longitude": "12.4448004"}, {"name": "Schule Portitz", "post_code": "04349", "street": "G\u00f6bschelwitzer Weg 1", "town": "Leipzig", "school_type": 0, "latitude": "51.3872849", "longitude": "12.4528562"}, {"name": "Schule R\u00fcckmarsdorf", "post_code": "04178", "street": "An der Friedenseiche 4", "town": "Leipzig", "school_type": 0, "latitude": "51.3436658", "longitude": "12.2519192"}, {"name": "Schule Seehausen", "post_code": "04356", "street": "Seehausener Allee 17", "town": "Leipzig", "school_type": 0, "latitude": "51.4000144", "longitude": "12.3951403"}, {"name": "Schule Stahmeln", "post_code": "04159", "street": "Stahmelner H\u00f6he 1", "town": "Leipzig", "school_type": 0, "latitude": "51.3806019", "longitude": "12.3050184"}, {"name": "Schule Wiederitzsch", "post_code": "04158", "street": "Zur Schule 11", "town": "Leipzig", "school_type": 0, "latitude": "51.3935693", "longitude": "12.372415"}, {"name": "Theodor-K\u00f6rner-Schule", "post_code": "04329", "street": "Schlehenweg 32", "town": "Leipzig", "school_type": 0, "latitude": "51.3531771", "longitude": "12.4644781"}, {"name": "Wilhelm-Hauff-Schule", "post_code": "04159", "street": "Diderot Stra\u00dfe 37", "town": "Leipzig", "school_type": 0, "latitude": "51.3716135", "longitude": "12.3450449"}, {"name": "Wilhelm-Wander-Schule", "post_code": "04315", "street": "Schulze-Delitzsch-Stra\u00dfe 23", "town": "Leipzig", "school_type": 0, "latitude": "51.34846075", "longitude": "12.4034875411"}, {"name": "Musikalisch-Sportliches Gymnasium", "post_code": "04103", "street": "Salomonstra\u00dfe 10", "town": "Leipzig", "school_type": 2, "latitude": "51.3396025", "longitude": "12.3890014"}, {"name": "Anton-Philipp-Reclam-Schule", "post_code": "04103", "street": "Tarostra\u00dfe 4", "town": "Leipzig", "school_type": 2, "latitude": "51.32525735", "longitude": "12.3857508151"}, {"name": "Friedrich-Arnold-Brockhaus-Schule", "post_code": "04357", "street": "Kieler Stra\u00dfe 72 b", "town": "Leipzig", "school_type": 2, "latitude": "51.3765742", "longitude": "12.4205124"}, {"name": "Friedrich-Schiller-Schule", "post_code": "04155", "street": "Elsbethstra\u00dfe 2/4", "town": "Leipzig", "school_type": 2, "latitude": "51.3634368", "longitude": "12.3657069"}, {"name": "Gustav-Hertz-Schule", "post_code": "04329", "street": "Dachsstra\u00dfe 5", "town": "Leipzig", "school_type": 2, "latitude": "51.35700335", "longitude": "12.4692590873"}, {"name": "Humboldt-Schule", "post_code": "04317", "street": "M\u00f6biusstra\u00dfe 8", "town": "Leipzig", "school_type": 2, "latitude": "51.33020425", "longitude": "12.4070245271"}, {"name": "Immanuel-Kant-Schule", "post_code": "04275", "street": "Scharnhorststra\u00dfe 15", "town": "Leipzig", "school_type": 2, "latitude": "51.3199685", "longitude": "12.3724318995"}, {"name": "Johannes-Kepler-Schule", "post_code": "04229", "street": "Dieskaustra\u00dfe 76", "town": "Leipzig", "school_type": 2, "latitude": "51.3138036", "longitude": "12.3243181249"}, {"name": "Leibnizschule", "post_code": "04105", "street": "Nordplatz 13", "town": "Leipzig", "school_type": 2, "latitude": "51.3521584", "longitude": "12.3751616062"}, {"name": "Lousie-Otto-Peters-Schule", "post_code": "04277", "street": "Bornaische Stra\u00dfe 104", "town": "Leipzig", "school_type": 2, "latitude": "51.3017978", "longitude": "12.3830842454"}, {"name": "Max-Klinger-Schule", "post_code": "04205", "street": "Miltitzer Weg 2/4", "town": "Leipzig", "school_type": 2, "latitude": "51.3222025", "longitude": "12.2662001"}, {"name": "Neue Nikolaischule", "post_code": "04299", "street": "Sch\u00f6nbachstra\u00dfe 17", "town": "Leipzig", "school_type": 2, "latitude": "51.31776875", "longitude": "12.4130203648"}, {"name": "Robert-Schumann-Schule", "post_code": "04177", "street": "Demmeringstra\u00dfe 84", "town": "Leipzig", "school_type": 2, "latitude": "51.33543925", "longitude": "12.3228074531"}, {"name": "Thomasschule zu Leipzig", "post_code": "04109", "street": "Hillerstra\u00dfe 7", "town": "Leipzig", "school_type": 2, "latitude": "51.33651645", "longitude": "12.3594470706"}, {"name": "Werner-Heisenberg-Schule", "post_code": "04159", "street": "Renftstra\u00dfe 3", "town": "Leipzig", "school_type": 2, "latitude": "51.33651645", "longitude": "12.3594470706"}, {"name": "Wilhelm-Ostwald-Schule", "post_code": "04279", "street": "Willi-Bredel-Stra\u00dfe 13/15", "town": "Leipzig", "school_type": 2, "latitude": "51.3003624", "longitude": "12.402688"}, {"name": "Gymnasium Engelsdorf", "post_code": "04319", "street": "Arthur-Winkler-Stra\u00dfe 6", "town": "Leipzig", "school_type": 2, "latitude": "51.33525285", "longitude": "12.4811639395"}, {"name": "Landesgymnasium f\u00fcr Sport Leipzig", "post_code": "04109", "street": "Marschnerstra\u00dfe 30", "town": "Leipzig", "school_type": 2, "latitude": "51.33926765", "longitude": "12.3557341494"}]