[{"pk": 1, "model": "daycare.daycarecenter", "fields": {"name": "Kita Ahlfeldstra\u00dfe  2", "district": "Alt-West", "zipcode": "04177", "longitude": "12.3227367", "latitude": "51.3424227", "address": "Ahlfeldstra\u00dfe  2", "daycare_type": 0}}, {"pk": 2, "model": "daycare.daycarecenter", "fields": {"name": "Kita Alte Stra\u00dfe 2", "district": "S\u00fcdwest", "zipcode": "", "longitude": "12.34192", "latitude": "51.3316", "address": "Alte Stra\u00dfe 2", "daycare_type": 0}}, {"pk": 3, "model": "daycare.daycarecenter", "fields": {"name": "Kita Alte Thekalerstr. 13a", "district": "Nordost", "zipcode": "", "longitude": "12.43344", "latitude": "51.37855", "address": "Alte Thekalerstr. 13a", "daycare_type": 0}}, {"pk": 4, "model": "daycare.daycarecenter", "fields": {"name": "Kita Altenburger Str.  3", "district": "S\u00fcd", "zipcode": "", "longitude": "12.38368", "latitude": "51.31795", "address": "Altenburger Str.  3", "daycare_type": 0}}, {"pk": 5, "model": "daycare.daycarecenter", "fields": {"name": "Kita Althener Anger  18", "district": "Ost", "zipcode": "", "longitude": "12.51926", "latitude": "51.33971", "address": "Althener Anger  18", "daycare_type": 0}}, {"pk": 6, "model": "daycare.daycarecenter", "fields": {"name": "Kita Althener Stra\u00dfe 18", "district": "Ost", "zipcode": "", "longitude": "12.48493", "latitude": "51.33368", "address": "Althener Stra\u00dfe 18", "daycare_type": 0}}, {"pk": 7, "model": "daycare.daycarecenter", "fields": {"name": "Kita Am Hohlweg 2", "district": "Nordwest", "zipcode": "04159", "longitude": "12.3057261", "latitude": "51.3809395", "address": "Am Hohlweg 2", "daycare_type": 0}}, {"pk": 8, "model": "daycare.daycarecenter", "fields": {"name": "Kita Am Kirschberg 39", "district": "West", "zipcode": "", "longitude": "12.28225", "latitude": "51.31854", "address": "Am Kirschberg 39", "daycare_type": 0}}, {"pk": 9, "model": "daycare.daycarecenter", "fields": {"name": "Kita Am Kirschberg  37", "district": "West", "zipcode": "", "longitude": "12.2821814", "latitude": "51.319375", "address": "Am Kirschberg  37", "daycare_type": 0}}, {"pk": 10, "model": "daycare.daycarecenter", "fields": {"name": "Kita Am Langen Felde 29", "district": "Alt-West", "zipcode": "04179", "longitude": "12.3151594672", "latitude": "51.34311695", "address": "Am Langen Felde 29", "daycare_type": 0}}, {"pk": 11, "model": "daycare.daycarecenter", "fields": {"name": "Kita Am langen Felde  8", "district": "Alt-West", "zipcode": "04179", "longitude": "12.3162495708", "latitude": "51.3454275", "address": "Am langen Felde  8", "daycare_type": 0}}, {"pk": 12, "model": "daycare.daycarecenter", "fields": {"name": "Kita An der Hauptstra\u00dfe 40 a", "district": "Nord", "zipcode": "04356", "longitude": "12.4447162203", "latitude": "51.42038475", "address": "An der Hauptstra\u00dfe 40 a", "daycare_type": 0}}, {"pk": 13, "model": "daycare.daycarecenter", "fields": {"name": "Kita An der Lehde 12", "district": "Alt-West", "zipcode": "04179", "longitude": "12.3218422", "latitude": "51.3459457", "address": "An der Lehde 12", "daycare_type": 0}}, {"pk": 14, "model": "daycare.daycarecenter", "fields": {"name": "Kita An der Lehde 14", "district": "Alt-West", "zipcode": "04179", "longitude": "12.3218422", "latitude": "51.3459457", "address": "An der Lehde 14", "daycare_type": 0}}, {"pk": 15, "model": "daycare.daycarecenter", "fields": {"name": "Kita An der M\u00e4rchenwiese 3", "district": "S\u00fcd", "zipcode": "04277", "longitude": "12.3921473142", "latitude": "51.3056379", "address": "An der M\u00e4rchenwiese 3", "daycare_type": 0}}, {"pk": 16, "model": "daycare.daycarecenter", "fields": {"name": "Kita An der Querbreite 4", "district": "Nord", "zipcode": "04129", "longitude": "12.388607", "latitude": "51.3713749", "address": "An der Querbreite 4", "daycare_type": 0}}, {"pk": 17, "model": "daycare.daycarecenter", "fields": {"name": "Kita An der Schule 1", "district": "Nordwest", "zipcode": "04828", "longitude": "12.7128147698", "latitude": "51.3578873", "address": "An der Schule 1", "daycare_type": 0}}, {"pk": 18, "model": "daycare.daycarecenter", "fields": {"name": "Kita An der Tabaksm\u00fchle 30", "district": "S\u00fcd", "zipcode": "04277", "longitude": "12.4001930194", "latitude": "51.31113765", "address": "An der Tabaksm\u00fchle 30", "daycare_type": 0}}, {"pk": 19, "model": "daycare.daycarecenter", "fields": {"name": "Kita An der Teichm\u00fchle 2", "district": "Alt-West", "zipcode": "04178", "longitude": "12.2517003", "latitude": "51.3407627", "address": "An der Teichm\u00fchle 2", "daycare_type": 0}}, {"pk": 20, "model": "daycare.daycarecenter", "fields": {"name": "Kita Arthur-Nagel-Stra\u00dfe 1 a/b", "district": "S\u00fcdwest", "zipcode": "", "longitude": "12.3238704", "latitude": "51.307364", "address": "Arthur-Nagel-Stra\u00dfe 1 a/b", "daycare_type": 0}}, {"pk": 21, "model": "daycare.daycarecenter", "fields": {"name": "Kita Auenstra\u00dfe 10", "district": "Alt-West", "zipcode": "", "longitude": "12.2978", "latitude": "51.35897", "address": "Auenstra\u00dfe 10", "daycare_type": 0}}, {"pk": 22, "model": "daycare.daycarecenter", "fields": {"name": "Kita B\u00e4stleinstra\u00dfe 18", "district": "Nordost", "zipcode": "04347", "longitude": "12.4290056769", "latitude": "51.35505135", "address": "B\u00e4stleinstra\u00dfe 18", "daycare_type": 0}}, {"pk": 23, "model": "daycare.daycarecenter", "fields": {"name": "Kita Bernburger Stra\u00dfe 22", "district": "Nord", "zipcode": "04129", "longitude": "12.3920937", "latitude": "51.3643375", "address": "Bernburger Stra\u00dfe 22", "daycare_type": 0}}, {"pk": 24, "model": "daycare.daycarecenter", "fields": {"name": "Kita Bertolt-Brecht-Stra\u00dfe 11", "district": "Nordost", "zipcode": "04347", "longitude": "12.4279568", "latitude": "51.3579502", "address": "Bertolt-Brecht-Stra\u00dfe 11", "daycare_type": 0}}, {"pk": 25, "model": "daycare.daycarecenter", "fields": {"name": "Kita Biedermannstra\u00dfe 23", "district": "S\u00fcd", "zipcode": "04277", "longitude": "12.3760840062", "latitude": "51.3076935", "address": "Biedermannstra\u00dfe 23", "daycare_type": 0}}, {"pk": 26, "model": "daycare.daycarecenter", "fields": {"name": "Kita Bisamstra\u00dfe 17", "district": "Ost", "zipcode": "04329", "longitude": "12.4718236", "latitude": "51.3561142", "address": "Bisamstra\u00dfe 17", "daycare_type": 0}}, {"pk": 27, "model": "daycare.daycarecenter", "fields": {"name": "Kita Bockstra\u00dfe 8", "district": "S\u00fcdost", "zipcode": "04289", "longitude": "12.4265767", "latitude": "51.305144", "address": "Bockstra\u00dfe 8", "daycare_type": 0}}, {"pk": 28, "model": "daycare.daycarecenter", "fields": {"name": "Kita Bornaische Stra\u00dfe 184", "district": "S\u00fcd", "zipcode": "04279", "longitude": "12.3915553782", "latitude": "51.2880063", "address": "Bornaische Stra\u00dfe 184", "daycare_type": 0}}, {"pk": 29, "model": "daycare.daycarecenter", "fields": {"name": "Kita Bornaische Stra\u00dfe 138", "district": "S\u00fcd", "zipcode": "04279", "longitude": "12.38505775", "latitude": "51.29346285", "address": "Bornaische Stra\u00dfe 138", "daycare_type": 0}}, {"pk": 30, "model": "daycare.daycarecenter", "fields": {"name": "Kita Bornaische Stra\u00dfe  186 c", "district": "S\u00fcd", "zipcode": "", "longitude": "12.39211", "latitude": "51.28663", "address": "Bornaische Stra\u00dfe  186 c", "daycare_type": 0}}, {"pk": 31, "model": "daycare.daycarecenter", "fields": {"name": "Kita Bothestra\u00dfe 17/19", "district": "Nord", "zipcode": "04155", "longitude": "12.3540357", "latitude": "51.3637611", "address": "Bothestra\u00dfe 17/19", "daycare_type": 0}}, {"pk": 32, "model": "daycare.daycarecenter", "fields": {"name": "Kita Brandiser Stra\u00dfe 20", "district": "Ost", "zipcode": "", "longitude": "12.47453", "latitude": "51.32294", "address": "Brandiser Stra\u00dfe 20", "daycare_type": 0}}, {"pk": 33, "model": "daycare.daycarecenter", "fields": {"name": "Kita Breisgaustra\u00dfe 21 a", "district": "West", "zipcode": "", "longitude": "12.29273", "latitude": "51.31778", "address": "Breisgaustra\u00dfe 21 a", "daycare_type": 0}}, {"pk": 34, "model": "daycare.daycarecenter", "fields": {"name": "Kita Bremer Stra\u00dfe 17", "district": "Nord", "zipcode": "04157", "longitude": "12.3648737", "latitude": "51.3770222", "address": "Bremer Stra\u00dfe 17", "daycare_type": 0}}, {"pk": 35, "model": "daycare.daycarecenter", "fields": {"name": "Kita Bremer Weg 17", "district": "Nord", "zipcode": "04148", "longitude": "12.3626263", "latitude": "51.3838721", "address": "Bremer Weg 17", "daycare_type": 0}}, {"pk": 36, "model": "daycare.daycarecenter", "fields": {"name": "Kita Coppistra\u00dfe 19", "district": "Nord", "zipcode": "", "longitude": "12.38138", "latitude": "51.36586", "address": "Coppistra\u00dfe 19", "daycare_type": 0}}, {"pk": 37, "model": "daycare.daycarecenter", "fields": {"name": "Kita Dahlienstra\u00dfe 75", "district": "West", "zipcode": "04209", "longitude": "12.3044138", "latitude": "51.324275", "address": "Dahlienstra\u00dfe 75", "daycare_type": 0}}, {"pk": 38, "model": "daycare.daycarecenter", "fields": {"name": "Kita Delitzscher Str. 141", "district": "Nord", "zipcode": "", "longitude": "12.3788", "latitude": "51.38466", "address": "Delitzscher Str. 141", "daycare_type": 0}}, {"pk": 39, "model": "daycare.daycarecenter", "fields": {"name": "Kita Demmeringstra\u00dfe 35", "district": "Alt-West", "zipcode": "", "longitude": "12.33009", "latitude": "51.337", "address": "Demmeringstra\u00dfe 35", "daycare_type": 0}}, {"pk": 40, "model": "daycare.daycarecenter", "fields": {"name": "Kita Demmeringstra\u00dfe  18", "district": "Alt-West", "zipcode": "04177", "longitude": "12.3342568", "latitude": "51.3384143", "address": "Demmeringstra\u00dfe  18", "daycare_type": 0}}, {"pk": 41, "model": "daycare.daycarecenter", "fields": {"name": "Kita Demmeringstra\u00dfe 125", "district": "Alt-West", "zipcode": "04179", "longitude": "12.3191712769", "latitude": "51.3331326", "address": "Demmeringstra\u00dfe 125", "daycare_type": 0}}, {"pk": 42, "model": "daycare.daycarecenter", "fields": {"name": "Kita Diderotstra\u00dfe 13", "district": "Nordwest", "zipcode": "04159", "longitude": "12.3465480445", "latitude": "51.3706541", "address": "Diderotstra\u00dfe 13", "daycare_type": 0}}, {"pk": 43, "model": "daycare.daycarecenter", "fields": {"name": "Kita Diezmannstra\u00dfe 87a", "district": "S\u00fcdwest", "zipcode": "04207", "longitude": "12.31070785", "latitude": "51.3137728", "address": "Diezmannstra\u00dfe 87a", "daycare_type": 0}}, {"pk": 44, "model": "daycare.daycarecenter", "fields": {"name": "Kita D\u00f6lling Stra\u00dfe  21", "district": "Ost", "zipcode": "", "longitude": "12.44851", "latitude": "51.3482", "address": "D\u00f6lling Stra\u00dfe  21", "daycare_type": 0}}, {"pk": 45, "model": "daycare.daycarecenter", "fields": {"name": "Kita Dorfstra\u00dfe 41", "district": "Ost", "zipcode": "04808", "longitude": "12.8566232691", "latitude": "51.32999965", "address": "Dorfstra\u00dfe 41", "daycare_type": 0}}, {"pk": 46, "model": "daycare.daycarecenter", "fields": {"name": "Kita Eduard-von-Hartmann-Stra\u00dfe 29/31", "district": "Nord", "zipcode": "04157", "longitude": "12.3796391", "latitude": "51.3705252", "address": "Eduard-von-Hartmann-Stra\u00dfe 29/31", "daycare_type": 0}}, {"pk": 47, "model": "daycare.daycarecenter", "fields": {"name": "Kita Eichlerstra\u00dfe  10", "district": "S\u00fcdost", "zipcode": "04317", "longitude": "12.4013038", "latitude": "51.3279214", "address": "Eichlerstra\u00dfe  10", "daycare_type": 0}}, {"pk": 48, "model": "daycare.daycarecenter", "fields": {"name": "Kita Eisenacher Stra\u00dfe 38", "district": "Nord", "zipcode": "04155", "longitude": "12.3643732188", "latitude": "51.3614942", "address": "Eisenacher Stra\u00dfe 38", "daycare_type": 0}}, {"pk": 49, "model": "daycare.daycarecenter", "fields": {"name": "Kita Eisenbahnstra\u00dfe 52", "district": "Ost", "zipcode": "", "longitude": "12.4024", "latitude": "51.3458", "address": "Eisenbahnstra\u00dfe 52", "daycare_type": 0}}, {"pk": 50, "model": "daycare.daycarecenter", "fields": {"name": "Kita Elsbethstra\u00dfe 38", "district": "Nord", "zipcode": "04155", "longitude": "12.3627533883", "latitude": "51.36392415", "address": "Elsbethstra\u00dfe 38", "daycare_type": 0}}, {"pk": 51, "model": "daycare.daycarecenter", "fields": {"name": "Kita Enderststra\u00dfe  32", "district": "Alt-West", "zipcode": "", "longitude": "12.327858", "latitude": "51.3335036", "address": "Enderststra\u00dfe  32", "daycare_type": 0}}, {"pk": 52, "model": "daycare.daycarecenter", "fields": {"name": "Kita Engelsdorfer Stra\u00dfe  279", "district": "Ost", "zipcode": "", "longitude": "12.48326", "latitude": "51.33456", "address": "Engelsdorfer Stra\u00dfe  279", "daycare_type": 0}}, {"pk": 53, "model": "daycare.daycarecenter", "fields": {"name": "Kita Engelsdorfer-Stra\u00dfe 130", "district": "Ost", "zipcode": "04316", "longitude": "12.4456653", "latitude": "51.3318324", "address": "Engelsdorfer-Stra\u00dfe 130", "daycare_type": 0}}, {"pk": 54, "model": "daycare.daycarecenter", "fields": {"name": "Kita Erhardstra\u00dfe 6", "district": "S\u00fcdwest", "zipcode": "04229", "longitude": "12.3426508", "latitude": "51.3182475", "address": "Erhardstra\u00dfe 6", "daycare_type": 0}}, {"pk": 55, "model": "daycare.daycarecenter", "fields": {"name": "Kita Erich-Zeigner-Allee 77 a", "district": "S\u00fcdwest", "zipcode": "", "longitude": "12.33713", "latitude": "51.32332", "address": "Erich-Zeigner-Allee 77 a", "daycare_type": 0}}, {"pk": 56, "model": "daycare.daycarecenter", "fields": {"name": "Kita Erich-Zeigner-Allee 77", "district": "S\u00fcdwest", "zipcode": "", "longitude": "12.33697", "latitude": "51.32266", "address": "Erich-Zeigner-Allee 77", "daycare_type": 0}}, {"pk": 57, "model": "daycare.daycarecenter", "fields": {"name": "Kita Ferdinand-Rhode-Stra\u00dfe 17", "district": "Mitte", "zipcode": "04107", "longitude": "12.3665524", "latitude": "51.3299711", "address": "Ferdinand-Rhode-Stra\u00dfe 17", "daycare_type": 0}}, {"pk": 58, "model": "daycare.daycarecenter", "fields": {"name": "Kita Ferdinand-Rhode-Stra\u00dfe 17 a", "district": "Mitte", "zipcode": "04107", "longitude": "12.367010327", "latitude": "51.3305161", "address": "Ferdinand-Rhode-Stra\u00dfe 17 a", "daycare_type": 0}}, {"pk": 59, "model": "daycare.daycarecenter", "fields": {"name": "Kita Freiodaer Weg 2", "district": "Nordwest", "zipcode": "", "longitude": "12.27376", "latitude": "51.385", "address": "Freiodaer Weg 2", "daycare_type": 0}}, {"pk": 60, "model": "daycare.daycarecenter", "fields": {"name": "Kita Friedrich-Bosse-Stra\u00dfe 19", "district": "Nordwest", "zipcode": "", "longitude": "12.33437", "latitude": "51.36985", "address": "Friedrich-Bosse-Stra\u00dfe 19", "daycare_type": 0}}, {"pk": 61, "model": "daycare.daycarecenter", "fields": {"name": "Kita Friedrich-Bosse-Stra\u00dfe 87a", "district": "Nordwest", "zipcode": "", "longitude": "12.32585", "latitude": "51.37238", "address": "Friedrich-Bosse-Stra\u00dfe 87a", "daycare_type": 0}}, {"pk": 62, "model": "daycare.daycarecenter", "fields": {"name": "Kita Friedrich-Ludwig-Jahn-Stra\u00dfe 5", "district": "West", "zipcode": "04808", "longitude": "12.7451761", "latitude": "51.3713739", "address": "Friedrich-Ludwig-Jahn-Stra\u00dfe 5", "daycare_type": 0}}, {"pk": 63, "model": "daycare.daycarecenter", "fields": {"name": "Kita Friedrichshafner Str. 21", "district": "Nordost", "zipcode": "", "longitude": "12.41791", "latitude": "51.35412", "address": "Friedrichshafner Str. 21", "daycare_type": 0}}, {"pk": 64, "model": "daycare.daycarecenter", "fields": {"name": "Kita Friedrichshafner Stra\u00dfe 25", "district": "Nordost", "zipcode": "", "longitude": "12.4070899", "latitude": "51.3655051", "address": "Friedrichshafner Stra\u00dfe 25", "daycare_type": 0}}, {"pk": 65, "model": "daycare.daycarecenter", "fields": {"name": "Kita Friedrichshafner Stra\u00dfe 147", "district": "Nord", "zipcode": "", "longitude": "12.40502", "latitude": "51.3774", "address": "Friedrichshafner Stra\u00dfe 147", "daycare_type": 0}}, {"pk": 66, "model": "daycare.daycarecenter", "fields": {"name": "Kita Frohburger Stra\u00dfe  33 D", "district": "S\u00fcd", "zipcode": "", "longitude": "12.38116", "latitude": "51.31106", "address": "Frohburger Stra\u00dfe  33 D", "daycare_type": 0}}, {"pk": 67, "model": "daycare.daycarecenter", "fields": {"name": "Kita Gabelsbergerstra\u00dfe 28", "district": "Mitte", "zipcode": "04315", "longitude": "12.3966636", "latitude": "51.3422858", "address": "Gabelsbergerstra\u00dfe 28", "daycare_type": 0}}, {"pk": 68, "model": "daycare.daycarecenter", "fields": {"name": "Kita Garskestra\u00dfe 17", "district": "West", "zipcode": "04205", "longitude": "12.2879222449", "latitude": "51.325878", "address": "Garskestra\u00dfe 17", "daycare_type": 0}}, {"pk": 69, "model": "daycare.daycarecenter", "fields": {"name": "Kita Georg-Gro\u00dfe-Stra\u00dfe 1a", "district": "Ost", "zipcode": "04319", "longitude": "12.477844", "latitude": "51.3342952", "address": "Georg-Gro\u00dfe-Stra\u00dfe 1a", "daycare_type": 0}}, {"pk": 70, "model": "daycare.daycarecenter", "fields": {"name": "Kita Gerhard-Ellrodt-Stra\u00dfe 17 a", "district": "S\u00fcdwest", "zipcode": "", "longitude": "12.32139", "latitude": "51.29962", "address": "Gerhard-Ellrodt-Stra\u00dfe 17 a", "daycare_type": 0}}, {"pk": 71, "model": "daycare.daycarecenter", "fields": {"name": "Kita Gersterstra\u00dfe  9", "district": "S\u00fcd", "zipcode": "04279", "longitude": "12.3896621449", "latitude": "51.2946904", "address": "Gersterstra\u00dfe  9", "daycare_type": 0}}, {"pk": 72, "model": "daycare.daycarecenter", "fields": {"name": "Kita Gleisstra\u00dfe 1", "district": "S\u00fcdwest", "zipcode": "04229", "longitude": "12.3454895", "latitude": "51.3309033", "address": "Gleisstra\u00dfe 1", "daycare_type": 0}}, {"pk": 73, "model": "daycare.daycarecenter", "fields": {"name": "Kita Goldsternstra\u00dfe  21 a", "district": "Ost", "zipcode": "", "longitude": "12.45573", "latitude": "51.35554", "address": "Goldsternstra\u00dfe  21 a", "daycare_type": 0}}, {"pk": 74, "model": "daycare.daycarecenter", "fields": {"name": "Kita Goldsternstra\u00dfe 21 b", "district": "Ost", "zipcode": "", "longitude": "12.45573", "latitude": "51.35554", "address": "Goldsternstra\u00dfe 21 b", "daycare_type": 0}}, {"pk": 75, "model": "daycare.daycarecenter", "fields": {"name": "Kita Goyastra\u00dfe 8", "district": "Nordwest", "zipcode": "04105", "longitude": "12.3523336", "latitude": "51.3491873", "address": "Goyastra\u00dfe 8", "daycare_type": 0}}, {"pk": 76, "model": "daycare.daycarecenter", "fields": {"name": "Kita Gr\u00fcnauer Allee 18", "district": "West", "zipcode": "04209", "longitude": "12.3071407", "latitude": "51.3177579", "address": "Gr\u00fcnauer Allee 18", "daycare_type": 0}}, {"pk": 77, "model": "daycare.daycarecenter", "fields": {"name": "Kita Gr\u00fcnauer Allee 18 a", "district": "West", "zipcode": "", "longitude": "12.30697", "latitude": "51.31824", "address": "Gr\u00fcnauer Allee 18 a", "daycare_type": 0}}, {"pk": 78, "model": "daycare.daycarecenter", "fields": {"name": "Kita G\u00fcldengossaer Stra\u00dfe 6 - 8", "district": "S\u00fcdost", "zipcode": "", "longitude": "12.45913", "latitude": "51.28224", "address": "G\u00fcldengossaer Stra\u00dfe 6 - 8", "daycare_type": 0}}, {"pk": 79, "model": "daycare.daycarecenter", "fields": {"name": "Kita Gundermannstr. 16", "district": "Ost", "zipcode": "04328", "longitude": "12.459252", "latitude": "51.351018", "address": "Gundermannstr. 16", "daycare_type": 0}}, {"pk": 80, "model": "daycare.daycarecenter", "fields": {"name": "Kita Gundermannstr.  18", "district": "Nordost", "zipcode": "04328", "longitude": "12.459252", "latitude": "51.351018", "address": "Gundermannstr.  18", "daycare_type": 0}}, {"pk": 81, "model": "daycare.daycarecenter", "fields": {"name": "Kita Gustav-Freytag-Stra\u00dfe 33  a", "district": "S\u00fcd", "zipcode": "", "longitude": "12.37084", "latitude": "51.31359", "address": "Gustav-Freytag-Stra\u00dfe 33  a", "daycare_type": 0}}, {"pk": 82, "model": "daycare.daycarecenter", "fields": {"name": "Kita Hannoversche Stra\u00dfe 52", "district": "Nord", "zipcode": "04157", "longitude": "12.3703314", "latitude": "51.3751865", "address": "Hannoversche Stra\u00dfe 52", "daycare_type": 0}}, {"pk": 83, "model": "daycare.daycarecenter", "fields": {"name": "Kita Hannoversche Stra\u00dfe 50", "district": "Nord", "zipcode": "04157", "longitude": "12.3703314", "latitude": "51.3751865", "address": "Hannoversche Stra\u00dfe 50", "daycare_type": 0}}, {"pk": 84, "model": "daycare.daycarecenter", "fields": {"name": "Kita Hans-Beimler-Stra\u00dfe 17", "district": "Nordwest", "zipcode": "04159", "longitude": "12.3366678", "latitude": "51.3725287", "address": "Hans-Beimler-Stra\u00dfe 17", "daycare_type": 0}}, {"pk": 85, "model": "daycare.daycarecenter", "fields": {"name": "Kita Hans-Beimler-Stra\u00dfe 3", "district": "Nordwest", "zipcode": "04159", "longitude": "12.3366678", "latitude": "51.3725287", "address": "Hans-Beimler-Stra\u00dfe 3", "daycare_type": 0}}, {"pk": 86, "model": "daycare.daycarecenter", "fields": {"name": "Kita Hans-Marchwitza-Stra\u00dfe 10", "district": "S\u00fcd", "zipcode": "04279", "longitude": "12.3994039908", "latitude": "51.2995571", "address": "Hans-Marchwitza-Stra\u00dfe 10", "daycare_type": 0}}, {"pk": 87, "model": "daycare.daycarecenter", "fields": {"name": "Kita Hans-Oster-Strasse 16", "district": "Nord", "zipcode": "04157", "longitude": "12.3603685", "latitude": "51.370362", "address": "Hans-Oster-Strasse 16", "daycare_type": 0}}, {"pk": 88, "model": "daycare.daycarecenter", "fields": {"name": "Kita Hans-Otto-Stra\u00dfe 2 a", "district": "S\u00fcd", "zipcode": "04279", "longitude": "12.3945887", "latitude": "51.3024271", "address": "Hans-Otto-Stra\u00dfe 2 a", "daycare_type": 0}}, {"pk": 89, "model": "daycare.daycarecenter", "fields": {"name": "Kita Hans-Otto-Stra\u00dfe 2 b", "district": "S\u00fcd", "zipcode": "04279", "longitude": "12.3950629", "latitude": "51.3024222", "address": "Hans-Otto-Stra\u00dfe 2 b", "daycare_type": 0}}, {"pk": 90, "model": "daycare.daycarecenter", "fields": {"name": "Kita Haydnstra\u00dfe  20", "district": "Mitte", "zipcode": "04107", "longitude": "12.3639994031", "latitude": "51.3295037", "address": "Haydnstra\u00dfe  20", "daycare_type": 0}}, {"pk": 91, "model": "daycare.daycarecenter", "fields": {"name": "Kita Heilemannstra\u00dfe  19", "district": "S\u00fcd", "zipcode": "04277", "longitude": "12.3676506448", "latitude": "51.31191865", "address": "Heilemannstra\u00dfe  19", "daycare_type": 0}}, {"pk": 92, "model": "daycare.daycarecenter", "fields": {"name": "Kita Herlo\u00dfsohnstra\u00dfe 20", "district": "Nord", "zipcode": "", "longitude": "12.35509", "latitude": "51.36017", "address": "Herlo\u00dfsohnstra\u00dfe 20", "daycare_type": 0}}, {"pk": 93, "model": "daycare.daycarecenter", "fields": {"name": "Kita Hermann-Liebmann-Stra\u00dfe 99", "district": "Ost", "zipcode": "04315", "longitude": "12.4059339796", "latitude": "51.34782505", "address": "Hermann-Liebmann-Stra\u00dfe 99", "daycare_type": 0}}, {"pk": 94, "model": "daycare.daycarecenter", "fields": {"name": "Kita Hohe Stra\u00dfe 21", "district": "Mitte", "zipcode": "04107", "longitude": "12.3768974", "latitude": "51.3291257", "address": "Hohe Stra\u00dfe 21", "daycare_type": 0}}, {"pk": 95, "model": "daycare.daycarecenter", "fields": {"name": "Kita Holsteinstra\u00dfe 62/64", "district": "S\u00fcdost", "zipcode": "04317", "longitude": "12.410563", "latitude": "51.3299302", "address": "Holsteinstra\u00dfe 62/64", "daycare_type": 0}}, {"pk": 96, "model": "daycare.daycarecenter", "fields": {"name": "Kita Holunderweg 38", "district": "S\u00fcdwest", "zipcode": "", "longitude": "12.29138", "latitude": "51.26826", "address": "Holunderweg 38", "daycare_type": 0}}, {"pk": 97, "model": "daycare.daycarecenter", "fields": {"name": "Kita Holzh\u00e4user Str. 15", "district": "S\u00fcdost", "zipcode": "", "longitude": "12.41134", "latitude": "51.31933", "address": "Holzh\u00e4user Str. 15", "daycare_type": 0}}, {"pk": 98, "model": "daycare.daycarecenter", "fields": {"name": "Kita Jadassohnstra\u00dfe 2", "district": "Alt-West", "zipcode": "04179", "longitude": "12.307223345", "latitude": "51.3346385", "address": "Jadassohnstra\u00dfe 2", "daycare_type": 0}}, {"pk": 99, "model": "daycare.daycarecenter", "fields": {"name": "Kita Jaspisstrasse 52", "district": "Ost", "zipcode": "", "longitude": "12.48236", "latitude": "51.33624", "address": "Jaspisstrasse 52", "daycare_type": 0}}, {"pk": 100, "model": "daycare.daycarecenter", "fields": {"name": "Kita J\u00f6rgen-Schmidtchen-Weg 4", "district": "Nord", "zipcode": "04148", "longitude": "12.3612668", "latitude": "51.3800479", "address": "J\u00f6rgen-Schmidtchen-Weg 4", "daycare_type": 0}}, {"pk": 101, "model": "daycare.daycarecenter", "fields": {"name": "Kita J\u00f6rgen-Schmidtchen-Weg 6", "district": "Nord", "zipcode": "04148", "longitude": "12.3612668", "latitude": "51.3800479", "address": "J\u00f6rgen-Schmidtchen-Weg 6", "daycare_type": 0}}, {"pk": 102, "model": "daycare.daycarecenter", "fields": {"name": "Kita Jupiterstra\u00dfe 37", "district": "West", "zipcode": "04205", "longitude": "12.2709814", "latitude": "51.3209074", "address": "Jupiterstra\u00dfe 37", "daycare_type": 0}}, {"pk": 103, "model": "daycare.daycarecenter", "fields": {"name": "Kita K\u00e4ndlerstra\u00dfe 11", "district": "West", "zipcode": "04205", "longitude": "12.2695133", "latitude": "51.3124849", "address": "K\u00e4ndlerstra\u00dfe 11", "daycare_type": 0}}, {"pk": 104, "model": "daycare.daycarecenter", "fields": {"name": "Kita Kantatenweg 41 b", "district": "S\u00fcdwest", "zipcode": "", "longitude": "12.33363", "latitude": "51.31817", "address": "Kantatenweg 41 b", "daycare_type": 0}}, {"pk": 105, "model": "daycare.daycarecenter", "fields": {"name": "Kita Kantatenweg 41 a", "district": "S\u00fcdwest", "zipcode": "", "longitude": "12.33363", "latitude": "51.31817", "address": "Kantatenweg 41 a", "daycare_type": 0}}, {"pk": 106, "model": "daycare.daycarecenter", "fields": {"name": "Kita Kantor-Andr\u00e4-Stra\u00dfe  16", "district": "Alt-West", "zipcode": "04178", "longitude": "12.2879298", "latitude": "51.3548646", "address": "Kantor-Andr\u00e4-Stra\u00dfe  16", "daycare_type": 0}}, {"pk": 107, "model": "daycare.daycarecenter", "fields": {"name": "Kita Karl-Heine-Stra\u00dfe 34", "district": "S\u00fcdwest", "zipcode": "04229", "longitude": "12.3375871", "latitude": "51.3325916", "address": "Karl-Heine-Stra\u00dfe 34", "daycare_type": 0}}, {"pk": 108, "model": "daycare.daycarecenter", "fields": {"name": "Kita Karl-Mannsfeld-Stra\u00dfe 7-8", "district": "Nordwest", "zipcode": "04159", "longitude": "12.3219241", "latitude": "51.3873751", "address": "Karl-Mannsfeld-Stra\u00dfe 7-8", "daycare_type": 0}}, {"pk": 109, "model": "daycare.daycarecenter", "fields": {"name": "Kita Kelbestra\u00dfe  3", "district": "Ost", "zipcode": "04316", "longitude": "12.4522172", "latitude": "51.3267059", "address": "Kelbestra\u00dfe  3", "daycare_type": 0}}, {"pk": 110, "model": "daycare.daycarecenter", "fields": {"name": "Kita Kleiststra\u00dfe 12", "district": "Nord", "zipcode": "04157", "longitude": "12.3794932583", "latitude": "51.3646185", "address": "Kleiststra\u00dfe 12", "daycare_type": 0}}, {"pk": 111, "model": "daycare.daycarecenter", "fields": {"name": "Kita Knautnaundorfer Stra\u00dfe 4 f", "district": "S\u00fcdwest", "zipcode": "", "longitude": "", "latitude": "", "address": "Knautnaundorfer Stra\u00dfe 4 f", "daycare_type": 0}}, {"pk": 112, "model": "daycare.daycarecenter", "fields": {"name": "Kita Koehlerstra\u00dfe  7", "district": "Ost", "zipcode": "", "longitude": "12.40365", "latitude": "51.3396", "address": "Koehlerstra\u00dfe  7", "daycare_type": 0}}, {"pk": 113, "model": "daycare.daycarecenter", "fields": {"name": "Kita Kohlgartenweg 3", "district": "Ost", "zipcode": "04318", "longitude": "12.4122592794", "latitude": "51.33503635", "address": "Kohlgartenweg 3", "daycare_type": 0}}, {"pk": 114, "model": "daycare.daycarecenter", "fields": {"name": "Kita K\u00f6nigsteinstra\u00dfe 70", "district": "West", "zipcode": "04207", "longitude": "12.2641018", "latitude": "51.3051878", "address": "K\u00f6nigsteinstra\u00dfe 70", "daycare_type": 0}}, {"pk": 115, "model": "daycare.daycarecenter", "fields": {"name": "Kita K\u00f6nigsteinstra\u00dfe 72", "district": "West", "zipcode": "04207", "longitude": "12.2646537", "latitude": "51.3052785", "address": "K\u00f6nigsteinstra\u00dfe 72", "daycare_type": 0}}, {"pk": 116, "model": "daycare.daycarecenter", "fields": {"name": "Kita K\u00f6nneritzstra\u00dfe 47", "district": "S\u00fcdwest", "zipcode": "", "longitude": "", "latitude": "", "address": "K\u00f6nneritzstra\u00dfe 47", "daycare_type": 0}}, {"pk": 117, "model": "daycare.daycarecenter", "fields": {"name": "Kita Konradstra\u00dfe 70-72", "district": "Ost", "zipcode": "04315", "longitude": "12.4118550906", "latitude": "51.34415285", "address": "Konradstra\u00dfe 70-72", "daycare_type": 0}}, {"pk": 118, "model": "daycare.daycarecenter", "fields": {"name": "Kita Kr\u00f6nerstra\u00dfe 43/45", "district": "Ost", "zipcode": "", "longitude": "12.41636", "latitude": "51.3397", "address": "Kr\u00f6nerstra\u00dfe 43/45", "daycare_type": 0}}, {"pk": 119, "model": "daycare.daycarecenter", "fields": {"name": "Kita Kunzestra\u00dfe 4", "district": "S\u00fcdwest", "zipcode": "04229", "longitude": "12.3308078", "latitude": "51.3053098", "address": "Kunzestra\u00dfe 4", "daycare_type": 0}}, {"pk": 120, "model": "daycare.daycarecenter", "fields": {"name": "Kita Kunzestra\u00dfe 6", "district": "S\u00fcdwest", "zipcode": "04229", "longitude": "12.3308078", "latitude": "51.3053098", "address": "Kunzestra\u00dfe 6", "daycare_type": 0}}, {"pk": 121, "model": "daycare.daycarecenter", "fields": {"name": "Kita Kurt-Tucholsky-Stra\u00dfe 12", "district": "S\u00fcdost", "zipcode": "", "longitude": "12.40336", "latitude": "51.30185", "address": "Kurt-Tucholsky-Stra\u00dfe 12", "daycare_type": 0}}, {"pk": 122, "model": "daycare.daycarecenter", "fields": {"name": "Kita Lange Stra\u00dfe 23", "district": "Mitte", "zipcode": "", "longitude": "12.39353", "latitude": "51.3416", "address": "Lange Stra\u00dfe 23", "daycare_type": 0}}, {"pk": 123, "model": "daycare.daycarecenter", "fields": {"name": "Kita Leipziger Stra\u00dfe 21", "district": "Alt-West", "zipcode": "04178", "longitude": "12.2985197", "latitude": "51.3561645", "address": "Leipziger Stra\u00dfe 21", "daycare_type": 0}}, {"pk": 124, "model": "daycare.daycarecenter", "fields": {"name": "Kita Leonhard-Frank-Stra\u00dfe 24b", "district": "Ost", "zipcode": "", "longitude": "12.4292", "latitude": "51.34931", "address": "Leonhard-Frank-Stra\u00dfe 24b", "daycare_type": 0}}, {"pk": 125, "model": "daycare.daycarecenter", "fields": {"name": "Kita Lerchenrain 14-16", "district": "S\u00fcd", "zipcode": "", "longitude": "12.40204", "latitude": "51.30883", "address": "Lerchenrain 14-16", "daycare_type": 0}}, {"pk": 126, "model": "daycare.daycarecenter", "fields": {"name": "Kita Lichtenbergweg 3", "district": "S\u00fcdost", "zipcode": "04299", "longitude": "12.4112986", "latitude": "51.3201012", "address": "Lichtenbergweg 3", "daycare_type": 0}}, {"pk": 127, "model": "daycare.daycarecenter", "fields": {"name": "Kita Liebigstra\u00dfe 22 b", "district": "Mitte", "zipcode": "", "longitude": "12.3897", "latitude": "51.3312", "address": "Liebigstra\u00dfe 22 b", "daycare_type": 0}}, {"pk": 128, "model": "daycare.daycarecenter", "fields": {"name": "Kita Lindenallee 3 a", "district": "Nordwest", "zipcode": "", "longitude": "12.34059", "latitude": "51.40378", "address": "Lindenallee 3 a", "daycare_type": 0}}, {"pk": 129, "model": "daycare.daycarecenter", "fields": {"name": "Kita Lindenstra\u00dfe 54", "district": "Nord", "zipcode": "", "longitude": "12.3788", "latitude": "51.39743", "address": "Lindenstra\u00dfe 54", "daycare_type": 0}}, {"pk": 130, "model": "daycare.daycarecenter", "fields": {"name": "Kita Linn\u00e9stra\u00dfe 12", "district": "Mitte", "zipcode": "04103", "longitude": "12.3925495244", "latitude": "51.3258525", "address": "Linn\u00e9stra\u00dfe 12", "daycare_type": 0}}, {"pk": 131, "model": "daycare.daycarecenter", "fields": {"name": "Kita Lobst\u00e4dter Str.  14", "district": "S\u00fcd", "zipcode": "", "longitude": "12.38911", "latitude": "51.29802", "address": "Lobst\u00e4dter Str.  14", "daycare_type": 0}}, {"pk": 132, "model": "daycare.daycarecenter", "fields": {"name": "Kita L\u00f6hrstra\u00dfe 9", "district": "Mitte", "zipcode": "", "longitude": "12.37322", "latitude": "51.34571", "address": "L\u00f6hrstra\u00dfe 9", "daycare_type": 0}}, {"pk": 133, "model": "daycare.daycarecenter", "fields": {"name": "Kita L\u00f6\u00dfniger Stra\u00dfe 8", "district": "Mitte", "zipcode": "04416", "longitude": "12.3744741465", "latitude": "51.28918975", "address": "L\u00f6\u00dfniger Stra\u00dfe 8", "daycare_type": 0}}, {"pk": 134, "model": "daycare.daycarecenter", "fields": {"name": "Kita Louis-F\u00fcrnberg-Stra\u00dfe 19", "district": "S\u00fcdost", "zipcode": "04138", "longitude": "12.4276295", "latitude": "51.348765", "address": "Louis-F\u00fcrnberg-Stra\u00dfe 19", "daycare_type": 0}}, {"pk": 135, "model": "daycare.daycarecenter", "fields": {"name": "Kita Louis-F\u00fcrnberg-Stra\u00dfe 21", "district": "S\u00fcdost", "zipcode": "04318", "longitude": "12.425997", "latitude": "51.3481902", "address": "Louis-F\u00fcrnberg-Stra\u00dfe 21", "daycare_type": 0}}, {"pk": 136, "model": "daycare.daycarecenter", "fields": {"name": "Kita Marschnerstra\u00dfe 21", "district": "Mitte", "zipcode": "", "longitude": "12.35606", "latitude": "51.33669", "address": "Marschnerstra\u00dfe 21", "daycare_type": 0}}, {"pk": 137, "model": "daycare.daycarecenter", "fields": {"name": "Kita Meininger Ring 41", "district": "Nordwest", "zipcode": "04205", "longitude": "12.2790497", "latitude": "51.3198952", "address": "Meininger Ring 41", "daycare_type": 0}}, {"pk": 138, "model": "daycare.daycarecenter", "fields": {"name": "Kita Meusdorfer Stra\u00dfe 47 b", "district": "S\u00fcd", "zipcode": "04277", "longitude": "12.376086", "latitude": "51.3047518", "address": "Meusdorfer Stra\u00dfe 47 b", "daycare_type": 0}}, {"pk": 139, "model": "daycare.daycarecenter", "fields": {"name": "Kita Mothesstra\u00dfe 2", "district": "Nord", "zipcode": "04129", "longitude": "12.3854064", "latitude": "51.3737377", "address": "Mothesstra\u00dfe 2", "daycare_type": 0}}, {"pk": 140, "model": "daycare.daycarecenter", "fields": {"name": "Kita Naunhofer Stra\u00dfe 31", "district": "S\u00fcdost", "zipcode": "", "longitude": "12.41496", "latitude": "51.31691", "address": "Naunhofer Stra\u00dfe 31", "daycare_type": 0}}, {"pk": 141, "model": "daycare.daycarecenter", "fields": {"name": "Kita Neptunweg  29a", "district": "West", "zipcode": "", "longitude": "12.2691", "latitude": "51.32442", "address": "Neptunweg  29a", "daycare_type": 0}}, {"pk": 142, "model": "daycare.daycarecenter", "fields": {"name": "Kita Neue Leipziger Stra\u00dfe 37 a", "district": "West", "zipcode": "04205", "longitude": "12.2654375", "latitude": "51.3201831", "address": "Neue Leipziger Stra\u00dfe 37 a", "daycare_type": 0}}, {"pk": 143, "model": "daycare.daycarecenter", "fields": {"name": "Kita Neue Leipziger Stra\u00dfe 39 a", "district": "West", "zipcode": "04205", "longitude": "12.2654375", "latitude": "51.3201831", "address": "Neue Leipziger Stra\u00dfe 39 a", "daycare_type": 0}}, {"pk": 144, "model": "daycare.daycarecenter", "fields": {"name": "Kita Nordplatz 14", "district": "Mitte", "zipcode": "04105", "longitude": "12.3740353801", "latitude": "51.35278285", "address": "Nordplatz 14", "daycare_type": 0}}, {"pk": 145, "model": "daycare.daycarecenter", "fields": {"name": "Kita Nordstra\u00dfe 43 a/b", "district": "Mitte", "zipcode": "", "longitude": "12.3739", "latitude": "51.35002", "address": "Nordstra\u00dfe 43 a/b", "daycare_type": 0}}, {"pk": 146, "model": "daycare.daycarecenter", "fields": {"name": "Kita Nordweg  9", "district": "Nord", "zipcode": "", "longitude": "12.37535", "latitude": "51.39477", "address": "Nordweg  9", "daycare_type": 0}}, {"pk": 147, "model": "daycare.daycarecenter", "fields": {"name": "Kita Odermannstra\u00dfe 4", "district": "Alt-West", "zipcode": "04177", "longitude": "12.3324212", "latitude": "51.3372964", "address": "Odermannstra\u00dfe 4", "daycare_type": 0}}, {"pk": 148, "model": "daycare.daycarecenter", "fields": {"name": "Kita Oststra\u00dfe  128", "district": "S\u00fcdost", "zipcode": "04299", "longitude": "12.4182879268", "latitude": "51.3268705", "address": "Oststra\u00dfe  128", "daycare_type": 0}}, {"pk": 149, "model": "daycare.daycarecenter", "fields": {"name": "Kita Oststra\u00dfe 185", "district": "S\u00fcdost", "zipcode": "04299", "longitude": "12.42209875", "latitude": "51.3236893", "address": "Oststra\u00dfe 185", "daycare_type": 0}}, {"pk": 150, "model": "daycare.daycarecenter", "fields": {"name": "Kita Palmstra\u00dfe 4", "district": "S\u00fcdost", "zipcode": "04317", "longitude": "12.4114069829", "latitude": "51.3289537", "address": "Palmstra\u00dfe 4", "daycare_type": 0}}, {"pk": 151, "model": "daycare.daycarecenter", "fields": {"name": "Kita Paul-List-Stra\u00dfe 11 c", "district": "Mitte", "zipcode": "", "longitude": "", "latitude": "", "address": "Paul-List-Stra\u00dfe 11 c", "daycare_type": 0}}, {"pk": 152, "model": "daycare.daycarecenter", "fields": {"name": "Kita Paul-Michael-Str. 15", "district": "Alt-West", "zipcode": "04179", "longitude": "12.3148857011", "latitude": "51.35305", "address": "Paul-Michael-Str. 15", "daycare_type": 0}}, {"pk": 153, "model": "daycare.daycarecenter", "fields": {"name": "Kita Pistorisstra\u00dfe 10", "district": "S\u00fcdwest", "zipcode": "04229", "longitude": "12.3423115", "latitude": "51.3157598", "address": "Pistorisstra\u00dfe 10", "daycare_type": 0}}, {"pk": 154, "model": "daycare.daycarecenter", "fields": {"name": "Kita Platnerstra\u00dfe 11", "district": "Nord", "zipcode": "", "longitude": "12.3607331", "latitude": "51.3587892", "address": "Platnerstra\u00dfe 11", "daycare_type": 0}}, {"pk": 155, "model": "daycare.daycarecenter", "fields": {"name": "Kita Poetenweg 22", "district": "Nord", "zipcode": "04155", "longitude": "12.3659189992", "latitude": "51.35652465", "address": "Poetenweg 22", "daycare_type": 0}}, {"pk": 156, "model": "daycare.daycarecenter", "fields": {"name": "Kita Poserstra\u00dfe 55", "district": "Nordost", "zipcode": "", "longitude": "12.42545", "latitude": "51.35373", "address": "Poserstra\u00dfe 55", "daycare_type": 0}}, {"pk": 157, "model": "daycare.daycarecenter", "fields": {"name": "Kita Prager Stra\u00dfe 224", "district": "S\u00fcdost", "zipcode": "", "longitude": "12.42099", "latitude": "51.30781", "address": "Prager Stra\u00dfe 224", "daycare_type": 0}}, {"pk": 158, "model": "daycare.daycarecenter", "fields": {"name": "Kita Raschwitzer Str. 4", "district": "S\u00fcd", "zipcode": "04416", "longitude": "12.3739786", "latitude": "51.2855487", "address": "Raschwitzer Str. 4", "daycare_type": 0}}, {"pk": 159, "model": "daycare.daycarecenter", "fields": {"name": "Kita Raschwitzer Stra\u00dfe 15", "district": "S\u00fcd", "zipcode": "", "longitude": "12.38396", "latitude": "51.29487", "address": "Raschwitzer Stra\u00dfe 15", "daycare_type": 0}}, {"pk": 160, "model": "daycare.daycarecenter", "fields": {"name": "Kita Rathenaustra\u00dfe 21", "district": "Alt-West", "zipcode": "", "longitude": "12.31444", "latitude": "51.35497", "address": "Rathenaustra\u00dfe 21", "daycare_type": 0}}, {"pk": 161, "model": "daycare.daycarecenter", "fields": {"name": "Kita Reichelstr. 3", "district": "Mitte", "zipcode": "04109", "longitude": "12.3671569", "latitude": "51.3369744", "address": "Reichelstr. 3", "daycare_type": 0}}, {"pk": 162, "model": "daycare.daycarecenter", "fields": {"name": "Kita Reichelstra\u00dfe 3-5", "district": "Mitte", "zipcode": "04109", "longitude": "12.3671569", "latitude": "51.3369744", "address": "Reichelstra\u00dfe 3-5", "daycare_type": 0}}, {"pk": 163, "model": "daycare.daycarecenter", "fields": {"name": "Kita Richard-Lehmann-Str. 30 A", "district": "S\u00fcd", "zipcode": "", "longitude": "12.37092", "latitude": "51.31449", "address": "Richard-Lehmann-Str. 30 A", "daycare_type": 0}}, {"pk": 164, "model": "daycare.daycarecenter", "fields": {"name": "Kita Rietschelstra\u00dfe 12", "district": "Alt-West", "zipcode": "", "longitude": "12.33283", "latitude": "51.33959", "address": "Rietschelstra\u00dfe 12", "daycare_type": 0}}, {"pk": 165, "model": "daycare.daycarecenter", "fields": {"name": "Kita Rietschelstra\u00dfe 52", "district": "Alt-West", "zipcode": "", "longitude": "12.3246879", "latitude": "51.3455582", "address": "Rietschelstra\u00dfe 52", "daycare_type": 0}}, {"pk": 166, "model": "daycare.daycarecenter", "fields": {"name": "Kita Ringstra\u00dfe  213", "district": "West", "zipcode": "04209", "longitude": "12.2938791616", "latitude": "51.31572115", "address": "Ringstra\u00dfe  213", "daycare_type": 0}}, {"pk": 167, "model": "daycare.daycarecenter", "fields": {"name": "Kita Ro\u00dfmarktstra\u00dfe 6", "district": "Alt-West", "zipcode": "04177", "longitude": "12.3353732971", "latitude": "51.33958255", "address": "Ro\u00dfmarktstra\u00dfe 6", "daycare_type": 0}}, {"pk": 168, "model": "daycare.daycarecenter", "fields": {"name": "Kita Rudolph-Sack-Stra\u00dfe 12", "district": "S\u00fcdwest", "zipcode": "04229", "longitude": "12.3412623", "latitude": "51.3308021", "address": "Rudolph-Sack-Stra\u00dfe 12", "daycare_type": 0}}, {"pk": 169, "model": "daycare.daycarecenter", "fields": {"name": "Kita Russenstra\u00dfe 135", "district": "S\u00fcdost", "zipcode": "", "longitude": "12.44936", "latitude": "51.30413", "address": "Russenstra\u00dfe 135", "daycare_type": 0}}, {"pk": 170, "model": "daycare.daycarecenter", "fields": {"name": "Kita Salomonstra\u00dfe 10", "district": "Mitte", "zipcode": "04103", "longitude": "12.3890014", "latitude": "51.3396025", "address": "Salomonstra\u00dfe 10", "daycare_type": 0}}, {"pk": 171, "model": "daycare.daycarecenter", "fields": {"name": "Kita Samuel-Lampel-Stra\u00dfe 2", "district": "Nordost", "zipcode": "04357", "longitude": "12.420163", "latitude": "51.3786618", "address": "Samuel-Lampel-Stra\u00dfe 2", "daycare_type": 0}}, {"pk": 172, "model": "daycare.daycarecenter", "fields": {"name": "Kita Schenkendorfstra\u00dfe 30", "district": "S\u00fcd", "zipcode": "04275", "longitude": "12.3747539694", "latitude": "51.32399005", "address": "Schenkendorfstra\u00dfe 30", "daycare_type": 0}}, {"pk": 173, "model": "daycare.daycarecenter", "fields": {"name": "Kita Schenkendorfstra\u00dfe 10", "district": "S\u00fcd", "zipcode": "04275", "longitude": "12.3711697716", "latitude": "51.32421435", "address": "Schenkendorfstra\u00dfe 10", "daycare_type": 0}}, {"pk": 174, "model": "daycare.daycarecenter", "fields": {"name": "Kita Sch\u00f6nauer Ring 23", "district": "West", "zipcode": "04209", "longitude": "12.2871061092", "latitude": "51.32831065", "address": "Sch\u00f6nauer Ring 23", "daycare_type": 0}}, {"pk": 175, "model": "daycare.daycarecenter", "fields": {"name": "Kita Sch\u00f6nbachstra\u00dfe 63", "district": "S\u00fcdost", "zipcode": "", "longitude": "12.4131", "latitude": "51.3222", "address": "Sch\u00f6nbachstra\u00dfe 63", "daycare_type": 0}}, {"pk": 176, "model": "daycare.daycarecenter", "fields": {"name": "Kita Sch\u00f6nefelder Allee 23 a", "district": "Nordost", "zipcode": "", "longitude": "12.40533", "latitude": "51.35729", "address": "Sch\u00f6nefelder Allee 23 a", "daycare_type": 0}}, {"pk": 177, "model": "daycare.daycarecenter", "fields": {"name": "Kita Schr\u00f6derstra\u00dfe 1", "district": "Alt-West", "zipcode": "04178", "longitude": "12.2636613", "latitude": "51.3567302", "address": "Schr\u00f6derstra\u00dfe 1", "daycare_type": 0}}, {"pk": 178, "model": "daycare.daycarecenter", "fields": {"name": "Kita Schulzeweg 11", "district": "Nordost", "zipcode": "", "longitude": "12.41743", "latitude": "51.35322", "address": "Schulzeweg 11", "daycare_type": 0}}, {"pk": 179, "model": "daycare.daycarecenter", "fields": {"name": "Kita Sch\u00fctzstra\u00dfe 2", "district": "Alt-West", "zipcode": "", "longitude": "12.32063", "latitude": "51.35304", "address": "Sch\u00fctzstra\u00dfe 2", "daycare_type": 0}}, {"pk": 180, "model": "daycare.daycarecenter", "fields": {"name": "Kita Sebastian-Bach-Stra\u00dfe 1 a", "district": "Mitte", "zipcode": "04109", "longitude": "12.3610027458", "latitude": "51.3366902", "address": "Sebastian-Bach-Stra\u00dfe 1 a", "daycare_type": 0}}, {"pk": 181, "model": "daycare.daycarecenter", "fields": {"name": "Kita Seidelstra\u00dfe 1/3", "district": "S\u00fcdost", "zipcode": "04289", "longitude": "12.4302299", "latitude": "51.2978644", "address": "Seidelstra\u00dfe 1/3", "daycare_type": 0}}, {"pk": 182, "model": "daycare.daycarecenter", "fields": {"name": "Kita Seipelweg 16 b", "district": "Nordost", "zipcode": "04347", "longitude": "12.4167", "latitude": "51.354155", "address": "Seipelweg 16 b", "daycare_type": 0}}, {"pk": 183, "model": "daycare.daycarecenter", "fields": {"name": "Kita Seitengasse 2", "district": "Nord", "zipcode": "04129", "longitude": "12.3856278", "latitude": "51.3676978", "address": "Seitengasse 2", "daycare_type": 0}}, {"pk": 184, "model": "daycare.daycarecenter", "fields": {"name": "Kita Seumestra\u00dfe 99", "district": "S\u00fcdwest", "zipcode": "04249", "longitude": "12.3120318568", "latitude": "51.27807825", "address": "Seumestra\u00dfe 99", "daycare_type": 0}}, {"pk": 185, "model": "daycare.daycarecenter", "fields": {"name": "Kita Sommerfelder Stra\u00dfe 29", "district": "S\u00fcdost", "zipcode": "04299", "longitude": "12.427593", "latitude": "51.3209638", "address": "Sommerfelder Stra\u00dfe 29", "daycare_type": 0}}, {"pk": 186, "model": "daycare.daycarecenter", "fields": {"name": "Kita Sophie-Scholl-Stra\u00dfe 6", "district": "Ost", "zipcode": "04316", "longitude": "12.4389685", "latitude": "51.326737", "address": "Sophie-Scholl-Stra\u00dfe 6", "daycare_type": 0}}, {"pk": 187, "model": "daycare.daycarecenter", "fields": {"name": "Kita Spinnereistra\u00dfe 8", "district": "Alt-West", "zipcode": "04179", "longitude": "12.3180869187", "latitude": "51.32802545", "address": "Spinnereistra\u00dfe 8", "daycare_type": 0}}, {"pk": 188, "model": "daycare.daycarecenter", "fields": {"name": "Kita Spinnereistra\u00dfe 10", "district": "Alt-West", "zipcode": "04179", "longitude": "12.3175288485", "latitude": "51.32769105", "address": "Spinnereistra\u00dfe 10", "daycare_type": 0}}, {"pk": 189, "model": "daycare.daycarecenter", "fields": {"name": "Kita Spittastra\u00dfe 7", "district": "Alt-West", "zipcode": "04177", "longitude": "12.3251041", "latitude": "51.3401986", "address": "Spittastra\u00dfe 7", "daycare_type": 0}}, {"pk": 190, "model": "daycare.daycarecenter", "fields": {"name": "Kita Sternwartenstra\u00dfe 30 a/b", "district": "Mitte", "zipcode": "", "longitude": "12.38492", "latitude": "51.33369", "address": "Sternwartenstra\u00dfe 30 a/b", "daycare_type": 0}}, {"pk": 191, "model": "daycare.daycarecenter", "fields": {"name": "Kita Stollberger Stra\u00dfe 8", "district": "Nordost", "zipcode": "04357", "longitude": "12.4337667356", "latitude": "51.37846765", "address": "Stollberger Stra\u00dfe 8", "daycare_type": 0}}, {"pk": 192, "model": "daycare.daycarecenter", "fields": {"name": "Kita St\u00f6tteritzer Stra\u00dfe 1", "district": "S\u00fcdost", "zipcode": "04317", "longitude": "12.4006168", "latitude": "51.3293899", "address": "St\u00f6tteritzer Stra\u00dfe 1", "daycare_type": 0}}, {"pk": 193, "model": "daycare.daycarecenter", "fields": {"name": "Kita S\u00fcdblick 5", "district": "S\u00fcdost", "zipcode": "04328", "longitude": "12.45478", "latitude": "51.35132", "address": "S\u00fcdblick 5", "daycare_type": 0}}, {"pk": 194, "model": "daycare.daycarecenter", "fields": {"name": "Kita Tarostra\u00dfe 7", "district": "Mitte", "zipcode": "04103", "longitude": "12.3876033765", "latitude": "51.3245381", "address": "Tarostra\u00dfe 7", "daycare_type": 0}}, {"pk": 195, "model": "daycare.daycarecenter", "fields": {"name": "Kita Tarostra\u00dfe 9", "district": "Mitte", "zipcode": "04103", "longitude": "12.3873800164", "latitude": "51.32435545", "address": "Tarostra\u00dfe 9", "daycare_type": 0}}, {"pk": 196, "model": "daycare.daycarecenter", "fields": {"name": "Kita Tarostra\u00dfe 17-19", "district": "Mitte", "zipcode": "04103", "longitude": "12.3884584", "latitude": "51.3247901", "address": "Tarostra\u00dfe 17-19", "daycare_type": 0}}, {"pk": 197, "model": "daycare.daycarecenter", "fields": {"name": "Kita T\u00e4ubchenweg 30", "district": "S\u00fcdost", "zipcode": "", "longitude": "12.40165", "latitude": "51.33566", "address": "T\u00e4ubchenweg 30", "daycare_type": 0}}, {"pk": 198, "model": "daycare.daycarecenter", "fields": {"name": "Kita Theodor-Neubauer-Stra\u00dfe 18", "district": "Ost", "zipcode": "04318", "longitude": "12.413676", "latitude": "51.3353405", "address": "Theodor-Neubauer-Stra\u00dfe 18", "daycare_type": 0}}, {"pk": 199, "model": "daycare.daycarecenter", "fields": {"name": "Kita Thietmarstra\u00dfe 13", "district": "Alt-West", "zipcode": "04179", "longitude": "12.3155805691", "latitude": "51.3290522", "address": "Thietmarstra\u00dfe 13", "daycare_type": 0}}, {"pk": 200, "model": "daycare.daycarecenter", "fields": {"name": "Kita Th\u00fcnenstra\u00dfe 2", "district": "Nord", "zipcode": "", "longitude": "12.39481", "latitude": "51.36912", "address": "Th\u00fcnenstra\u00dfe 2", "daycare_type": 0}}, {"pk": 201, "model": "daycare.daycarecenter", "fields": {"name": "Kita Tschaikowskistrasse 28", "district": "Mitte", "zipcode": "04105", "longitude": "12.3603667275", "latitude": "51.3461423", "address": "Tschaikowskistrasse 28", "daycare_type": 0}}, {"pk": 202, "model": "daycare.daycarecenter", "fields": {"name": "Kita Vollhardtstra\u00dfe 16", "district": "S\u00fcd", "zipcode": "04279", "longitude": "12.3879386071", "latitude": "51.28892155", "address": "Vollhardtstra\u00dfe 16", "daycare_type": 0}}, {"pk": 203, "model": "daycare.daycarecenter", "fields": {"name": "Kita Waldkerbelstra\u00dfe 2", "district": "Ost", "zipcode": "04328", "longitude": "12.4598978", "latitude": "51.3585126", "address": "Waldkerbelstra\u00dfe 2", "daycare_type": 0}}, {"pk": 204, "model": "daycare.daycarecenter", "fields": {"name": "Kita Waldrebenweg 9", "district": "Ost", "zipcode": "04319", "longitude": "12.4833916", "latitude": "51.3478911", "address": "Waldrebenweg 9", "daycare_type": 0}}, {"pk": 205, "model": "daycare.daycarecenter", "fields": {"name": "Kita Walter-Heinze-Stra\u00dfe 22", "district": "S\u00fcdwest", "zipcode": "", "longitude": "12.33503", "latitude": "51.33027", "address": "Walter-Heinze-Stra\u00dfe 22", "daycare_type": 0}}, {"pk": 206, "model": "daycare.daycarecenter", "fields": {"name": "Kita Wei\u00dfdornstra\u00dfe  2", "district": "West", "zipcode": "", "longitude": "12.29445", "latitude": "51.32182", "address": "Wei\u00dfdornstra\u00dfe  2", "daycare_type": 0}}, {"pk": 207, "model": "daycare.daycarecenter", "fields": {"name": "Kita Wiesenstra\u00dfe 18", "district": "Ost", "zipcode": "", "longitude": "12.46526", "latitude": "51.35638", "address": "Wiesenstra\u00dfe 18", "daycare_type": 0}}, {"pk": 208, "model": "daycare.daycarecenter", "fields": {"name": "Kita Wilhelm-Sammet-Str. 4", "district": "Nord", "zipcode": "04129", "longitude": "12.3805763097", "latitude": "51.3618051", "address": "Wilhelm-Sammet-Str. 4", "daycare_type": 0}}, {"pk": 209, "model": "daycare.daycarecenter", "fields": {"name": "Kita William-Zipperer-Stra\u00dfe 149", "district": "Alt-West", "zipcode": "04179", "longitude": "12.3133479", "latitude": "51.3488866", "address": "William-Zipperer-Stra\u00dfe 149", "daycare_type": 0}}, {"pk": 210, "model": "daycare.daycarecenter", "fields": {"name": "Kita Willmar-Schwabe-Stra\u00dfe 4", "district": "Mitte", "zipcode": "04105", "longitude": "12.3577698659", "latitude": "51.34106215", "address": "Willmar-Schwabe-Stra\u00dfe 4", "daycare_type": 0}}, {"pk": 211, "model": "daycare.daycarecenter", "fields": {"name": "Kita Windscheidstra\u00dfe 32", "district": "S\u00fcd", "zipcode": "04277", "longitude": "12.3686734802", "latitude": "51.3107675", "address": "Windscheidstra\u00dfe 32", "daycare_type": 0}}, {"pk": 212, "model": "daycare.daycarecenter", "fields": {"name": "Kita Wurzner Stra\u00dfe 122", "district": "Ost", "zipcode": "", "longitude": "12.4182128", "latitude": "51.3438316", "address": "Wurzner Stra\u00dfe 122", "daycare_type": 0}}, {"pk": 213, "model": "daycare.daycarecenter", "fields": {"name": "Kita Yorckstra\u00dfe  43 b", "district": "Nordwest", "zipcode": "", "longitude": "12.34357", "latitude": "51.37001", "address": "Yorckstra\u00dfe  43 b", "daycare_type": 0}}, {"pk": 214, "model": "daycare.daycarecenter", "fields": {"name": "Kita Yorckstra\u00dfe  43 a", "district": "Nordwest", "zipcode": "", "longitude": "12.34357", "latitude": "51.37001", "address": "Yorckstra\u00dfe  43 a", "daycare_type": 0}}, {"pk": 215, "model": "daycare.daycarecenter", "fields": {"name": "Kita Zeumer Stra\u00dfe 5", "district": "Ost", "zipcode": "", "longitude": "12.4072", "latitude": "51.35799", "address": "Zeumer Stra\u00dfe 5", "daycare_type": 0}}, {"pk": 216, "model": "daycare.daycarecenter", "fields": {"name": "Kita Zeumerstra\u00dfe 1", "district": "Nordost", "zipcode": "04347", "longitude": "12.4068927", "latitude": "51.3596377", "address": "Zeumerstra\u00dfe 1", "daycare_type": 0}}, {"pk": 217, "model": "daycare.daycarecenter", "fields": {"name": "Kita Zingster Stra\u00dfe 02", "district": "West", "zipcode": "", "longitude": "12.2599238", "latitude": "51.3106625", "address": "Zingster Stra\u00dfe 02", "daycare_type": 0}}, {"pk": 218, "model": "daycare.daycarecenter", "fields": {"name": "Kita Zittauer Stra\u00dfe 2 a", "district": "Nordost", "zipcode": "04347", "longitude": "12.4103927", "latitude": "51.3560341", "address": "Zittauer Stra\u00dfe 2 a", "daycare_type": 0}}, {"pk": 219, "model": "daycare.daycarecenter", "fields": {"name": "Kita Zum Kleingartenpark  15", "district": "Ost", "zipcode": "04318", "longitude": "12.4233467", "latitude": "51.342407", "address": "Zum Kleingartenpark  15", "daycare_type": 0}}, {"pk": 220, "model": "daycare.daycarecenter", "fields": {"name": "Kita Zur Schule  10", "district": "Nord", "zipcode": "", "longitude": "12.372747", "latitude": "51.3933745", "address": "Zur Schule  10", "daycare_type": 0}}, {"pk": 221, "model": "daycare.daycarecenter", "fields": {"name": "Kita Zweinauendorfer Stra\u00dfe 167", "district": "Ost", "zipcode": "", "longitude": "12.44172", "latitude": "51.32713", "address": "Zweinauendorfer Stra\u00dfe 167", "daycare_type": 0}}, {"pk": 222, "model": "daycare.daycarecenter", "fields": {"name": "1", "district": "Nordost", "zipcode": "", "longitude": "", "latitude": "", "address": "", "daycare_type": 1}}, {"pk": 223, "model": "daycare.daycarecenter", "fields": {"name": "2", "district": "Nordost", "zipcode": "", "longitude": "", "latitude": "", "address": "", "daycare_type": 1}}, {"pk": 224, "model": "daycare.daycarecenter", "fields": {"name": "3", "district": "Nordost", "zipcode": "", "longitude": "", "latitude": "", "address": "", "daycare_type": 1}}, {"pk": 225, "model": "daycare.daycarecenter", "fields": {"name": "BBW-TPP16", "district": "S\u00fcdost", "zipcode": "", "longitude": "", "latitude": "", "address": "", "daycare_type": 1}}, {"pk": 226, "model": "daycare.daycarecenter", "fields": {"name": "FAIRbund TPP03", "district": "Nord", "zipcode": "", "longitude": "", "latitude": "", "address": "", "daycare_type": 1}}, {"pk": 227, "model": "daycare.daycarecenter", "fields": {"name": "FAIRbund TPP05", "district": "Nord", "zipcode": "", "longitude": "", "latitude": "", "address": "", "daycare_type": 1}}, {"pk": 228, "model": "daycare.daycarecenter", "fields": {"name": "FAIRbund TPP06", "district": "Nord", "zipcode": "", "longitude": "", "latitude": "", "address": "", "daycare_type": 1}}, {"pk": 229, "model": "daycare.daycarecenter", "fields": {"name": "FAIRbund TPP07", "district": "Ost", "zipcode": "", "longitude": "", "latitude": "", "address": "", "daycare_type": 1}}, {"pk": 230, "model": "daycare.daycarecenter", "fields": {"name": "FAIRbund TPP09", "district": "Nord", "zipcode": "", "longitude": "", "latitude": "", "address": "", "daycare_type": 1}}, {"pk": 231, "model": "daycare.daycarecenter", "fields": {"name": "FJ-FR\u00d6BEL-L\u00f6\u00dfnig", "district": "S\u00fcd", "zipcode": "", "longitude": "", "latitude": "", "address": "", "daycare_type": 1}}, {"pk": 232, "model": "daycare.daycarecenter", "fields": {"name": "int-bsw 80100", "district": "S\u00fcdost", "zipcode": "04317", "longitude": "12.3997725667", "latitude": "51.3306576333", "address": "Schulze-Boysen-Stra\u00dfe 12", "daycare_type": 1}}, {"pk": 233, "model": "daycare.daycarecenter", "fields": {"name": "int-bsw 83900", "district": "Ost", "zipcode": "", "longitude": "", "latitude": "", "address": "", "daycare_type": 1}}, {"pk": 234, "model": "daycare.daycarecenter", "fields": {"name": "K\u00fcchollKa", "district": "Nord", "zipcode": "", "longitude": "", "latitude": "", "address": "", "daycare_type": 1}}, {"pk": 235, "model": "daycare.daycarecenter", "fields": {"name": "M\u00fcllerMa", "district": "Nordost", "zipcode": "", "longitude": "", "latitude": "", "address": "", "daycare_type": 1}}, {"pk": 236, "model": "daycare.daycarecenter", "fields": {"name": "MuruchiGe", "district": "S\u00fcdwest", "zipcode": "", "longitude": "", "latitude": "", "address": "", "daycare_type": 1}}, {"pk": 237, "model": "daycare.daycarecenter", "fields": {"name": "NieschAn", "district": "West", "zipcode": "", "longitude": "", "latitude": "", "address": "", "daycare_type": 1}}, {"pk": 238, "model": "daycare.daycarecenter", "fields": {"name": "OUTLAW-LIE", "district": "Ost", "zipcode": "", "longitude": "", "latitude": "", "address": "", "daycare_type": 1}}, {"pk": 239, "model": "daycare.daycarecenter", "fields": {"name": "OUTLAW-MER", "district": "S\u00fcdwest", "zipcode": "", "longitude": "", "latitude": "", "address": "", "daycare_type": 1}}, {"pk": 240, "model": "daycare.daycarecenter", "fields": {"name": "OUTLAW-ORT", "district": "Nordwest", "zipcode": "", "longitude": "", "latitude": "", "address": "", "daycare_type": 1}}, {"pk": 241, "model": "daycare.daycarecenter", "fields": {"name": "OUTLAW-SCHM", "district": "S\u00fcdwest", "zipcode": "", "longitude": "", "latitude": "", "address": "", "daycare_type": 1}}, {"pk": 242, "model": "daycare.daycarecenter", "fields": {"name": "OUTLAW-W\u00d6C", "district": "Alt-West", "zipcode": "04179", "longitude": "12.3123812078", "latitude": "51.3312781", "address": "Demmeringstra\u00dfe 157", "daycare_type": 1}}, {"pk": 243, "model": "daycare.daycarecenter", "fields": {"name": "Rahn01", "district": "West", "zipcode": "", "longitude": "", "latitude": "", "address": "", "daycare_type": 1}}, {"pk": 244, "model": "daycare.daycarecenter", "fields": {"name": "Rahn02", "district": "Nordost", "zipcode": "", "longitude": "", "latitude": "", "address": "", "daycare_type": 1}}, {"pk": 245, "model": "daycare.daycarecenter", "fields": {"name": "Rahn03", "district": "Nord", "zipcode": "", "longitude": "", "latitude": "", "address": "", "daycare_type": 1}}, {"pk": 246, "model": "daycare.daycarecenter", "fields": {"name": "Rahn04", "district": "Nordwest", "zipcode": "", "longitude": "", "latitude": "", "address": "", "daycare_type": 1}}, {"pk": 247, "model": "daycare.daycarecenter", "fields": {"name": "Rahn05", "district": "Nord", "zipcode": "", "longitude": "", "latitude": "", "address": "", "daycare_type": 1}}, {"pk": 248, "model": "daycare.daycarecenter", "fields": {"name": "Rahn06", "district": "West", "zipcode": "", "longitude": "", "latitude": "", "address": "", "daycare_type": 1}}, {"pk": 249, "model": "daycare.daycarecenter", "fields": {"name": "Rahn07", "district": "S\u00fcdost", "zipcode": "", "longitude": "", "latitude": "", "address": "", "daycare_type": 1}}, {"pk": 250, "model": "daycare.daycarecenter", "fields": {"name": "Rahn09", "district": "S\u00fcdwest", "zipcode": "", "longitude": "", "latitude": "", "address": "", "daycare_type": 1}}, {"pk": 251, "model": "daycare.daycarecenter", "fields": {"name": "Rahn10", "district": "S\u00fcdost", "zipcode": "", "longitude": "", "latitude": "", "address": "", "daycare_type": 1}}, {"pk": 252, "model": "daycare.daycarecenter", "fields": {"name": "SchakatJa", "district": "West", "zipcode": "", "longitude": "", "latitude": "", "address": "", "daycare_type": 1}}, {"pk": 253, "model": "daycare.daycarecenter", "fields": {"name": "SchwippsSa", "district": "Nord", "zipcode": "", "longitude": "", "latitude": "", "address": "", "daycare_type": 1}}, {"pk": 254, "model": "daycare.daycarecenter", "fields": {"name": "Tagesm\u00fctzel_04", "district": "S\u00fcdwest", "zipcode": "", "longitude": "", "latitude": "", "address": "", "daycare_type": 1}}, {"pk": 255, "model": "daycare.daycarecenter", "fields": {"name": "Tagesm\u00fctzel_07", "district": "Nordost", "zipcode": "", "longitude": "", "latitude": "", "address": "", "daycare_type": 1}}, {"pk": 256, "model": "daycare.daycarecenter", "fields": {"name": "Tagesm\u00fctzel_08", "district": "Ost", "zipcode": "", "longitude": "", "latitude": "", "address": "", "daycare_type": 1}}, {"pk": 257, "model": "daycare.daycarecenter", "fields": {"name": "Tagesm\u00fctzel_13", "district": "S\u00fcdwest", "zipcode": "", "longitude": "", "latitude": "", "address": "", "daycare_type": 1}}, {"pk": 258, "model": "daycare.daycarecenter", "fields": {"name": "Tagesm\u00fctzel_16", "district": "Ost", "zipcode": "", "longitude": "", "latitude": "", "address": "", "daycare_type": 1}}, {"pk": 259, "model": "daycare.daycarecenter", "fields": {"name": "Tagesm\u00fctzel_18", "district": "Nord", "zipcode": "", "longitude": "", "latitude": "", "address": "", "daycare_type": 1}}, {"pk": 260, "model": "daycare.daycarecenter", "fields": {"name": "Tagesm\u00fctzel_21", "district": "Nord", "zipcode": "", "longitude": "", "latitude": "", "address": "", "daycare_type": 1}}, {"pk": 261, "model": "daycare.daycarecenter", "fields": {"name": "Tagesm\u00fctzel_23", "district": "S\u00fcdwest", "zipcode": "", "longitude": "", "latitude": "", "address": "", "daycare_type": 1}}, {"pk": 262, "model": "daycare.daycarecenter", "fields": {"name": "Tagesm\u00fctzel_25", "district": "Nordost", "zipcode": "", "longitude": "", "latitude": "", "address": "", "daycare_type": 1}}, {"pk": 263, "model": "daycare.daycarecenter", "fields": {"name": "Tagesm\u00fctzel_26", "district": "Nordwest", "zipcode": "", "longitude": "", "latitude": "", "address": "", "daycare_type": 1}}, {"pk": 264, "model": "daycare.daycarecenter", "fields": {"name": "VJ - FR\u00d6BEL", "district": "S\u00fcd", "zipcode": "", "longitude": "", "latitude": "", "address": "", "daycare_type": 1}}, {"pk": 265, "model": "daycare.daycarecenter", "fields": {"name": "VKKJ Nordwest13", "district": "Nordwest", "zipcode": "", "longitude": "", "latitude": "", "address": "", "daycare_type": 1}}, {"pk": 266, "model": "daycare.daycarecenter", "fields": {"name": "VKKJ S\u00fcdwest4", "district": "S\u00fcdwest", "zipcode": "", "longitude": "", "latitude": "", "address": "", "daycare_type": 1}}]