{
  "features": [
    {
      "geometry": {
        "coordinates": [
          12.3638552344073,
          51.3615994
        ],
        "type": "Point"
      },
      "id": null,
      "properties": {
        "name": "Aktive Schule Leipzig",
        "popupContent": "<b>Aktive Schule Leipzig</b><br />Eisenacher Straße 40 04155 Leipzig"
      },
      "type": "Feature"
    },
    {
      "geometry": {
        "coordinates": [
          12.4378569,
          51.357294
        ],
        "type": "Point"
      },
      "id": null,
      "properties": {
        "name": "BIP-Kreativitätsgrundschule und -gymnasium",
        "popupContent": "<b>BIP-Kreativitätsgrundschule und -gymnasium</b><br />Torgauer Straße 114 04347 Leipzig"
      },
      "type": "Feature"
    },
    {
      "geometry": {
        "coordinates": [
          12.2990833529301,
          51.3210045
        ],
        "type": "Point"
      },
      "id": null,
      "properties": {
        "name": "Bischöfliches Maria-Montessori-Schulzentrum Leipzig",
        "popupContent": "<b>Bischöfliches Maria-Montessori-Schulzentrum Leipzig</b><br />Alte Salzstraße 61/65 04209 Leipzig"
      },
      "type": "Feature"
    },
    {
      "geometry": {
        "coordinates": [
          12.3775171141297,
          51.3305282
        ],
        "type": "Point"
      },
      "id": null,
      "properties": {
        "name": "Evangelisches Schulzentrum",
        "popupContent": "<b>Evangelisches Schulzentrum</b><br />Schletterstraße 7 04107 Leipzig"
      },
      "type": "Feature"
    },
    {
      "geometry": {
        "coordinates": [
          12.3911583486027,
          51.3405124
        ],
        "type": "Point"
      },
      "id": null,
      "properties": {
        "name": "Freie Grundschule \"Clara Schumann\" Leipzig",
        "popupContent": "<b>Freie Grundschule \"Clara Schumann\" Leipzig</b><br />Inselstraße 18 04103 Leipzig"
      },
      "type": "Feature"
    },
    {
      "geometry": {
        "coordinates": [
          12.3849199876145,
          51.2951968
        ],
        "type": "Point"
      },
      "id": null,
      "properties": {
        "name": "Freie Grundschule \"Regenbogen\"",
        "popupContent": "<b>Freie Grundschule \"Regenbogen\"</b><br />Raschwitzer Straße 15 04279 Leipzig"
      },
      "type": "Feature"
    },
    {
      "geometry": {
        "coordinates": [
          12.2959087496544,
          51.32032775
        ],
        "type": "Point"
      },
      "id": null,
      "properties": {
        "name": "Freie Schule Leipzig e.V.",
        "popupContent": "<b>Freie Schule Leipzig e.V.</b><br />Alte Salzstraße 67 04209 Leipzig"
      },
      "type": "Feature"
    },
    {
      "geometry": {
        "coordinates": [
          12.4056614302024,
          51.3648936
        ],
        "type": "Point"
      },
      "id": null,
      "properties": {
        "name": "Freie Waldorfschule Leipzig",
        "popupContent": "<b>Freie Waldorfschule Leipzig</b><br />Berthastraße 15 04357 Leipzig"
      },
      "type": "Feature"
    },
    {
      "geometry": {
        "coordinates": [
          12.3739786,
          51.2855487
        ],
        "type": "Point"
      },
      "id": null,
      "properties": {
        "name": "Karl-Schubert-Schule",
        "popupContent": "<b>Karl-Schubert-Schule</b><br />Raschwitzer Straße 4 04279 Leipzig"
      },
      "type": "Feature"
    },
    {
      "geometry": {
        "coordinates": [
          12.3451058563896,
          51.3245807
        ],
        "type": "Point"
      },
      "id": null,
      "properties": {
        "name": "Leipzig International School e.V.",
        "popupContent": "<b>Leipzig International School e.V.</b><br />Könneritzstraße 47 04229 Leipzig"
      },
      "type": "Feature"
    },
    {
      "geometry": {
        "coordinates": [
          12.2682684,
          51.3046982
        ],
        "type": "Point"
      },
      "id": null,
      "properties": {
        "name": "100. Schule",
        "popupContent": "<b>100. Schule</b><br />Miltitzer Allee 1 04207 Leipzig"
      },
      "type": "Feature"
    },
    {
      "geometry": {
        "coordinates": [
          12.3209317,
          51.3080429
        ],
        "type": "Point"
      },
      "id": null,
      "properties": {
        "name": "120. Schule",
        "popupContent": "<b>120. Schule</b><br />Martin-Herrmann-Straße 1 04249 Leipzig"
      },
      "type": "Feature"
    },
    {
      "geometry": {
        "coordinates": [
          12.3135829110836,
          51.34727525
        ],
        "type": "Point"
      },
      "id": null,
      "properties": {
        "name": "157. Schule",
        "popupContent": "<b>157. Schule</b><br />Hans-Driesch-Straße 41 04179 Leipzig"
      },
      "type": "Feature"
    },
    {
      "geometry": {
        "coordinates": [
          12.320388,
          51.3441336
        ],
        "type": "Point"
      },
      "id": null,
      "properties": {
        "name": "172. Schule",
        "popupContent": "<b>172. Schule</b><br />Prießnitzstraße 19 04179 Leipzig"
      },
      "type": "Feature"
    },
    {
      "geometry": {
        "coordinates": [
          12.4116473,
          51.3561392
        ],
        "type": "Point"
      },
      "id": null,
      "properties": {
        "name": "21. Schule",
        "popupContent": "<b>21. Schule</b><br />Stöckelstraße 45 04347 Leipzig"
      },
      "type": "Feature"
    },
    {
      "geometry": {
        "coordinates": [
          12.4499583141949,
          51.34808705
        ],
        "type": "Point"
      },
      "id": null,
      "properties": {
        "name": "24. Schule",
        "popupContent": "<b>24. Schule</b><br />Döllingstraße 25 04328 Leipzig"
      },
      "type": "Feature"
    },
    {
      "geometry": {
        "coordinates": [
          12.4361491723029,
          51.30209895
        ],
        "type": "Point"
      },
      "id": null,
      "properties": {
        "name": "31. Schule",
        "popupContent": "<b>31. Schule</b><br />Franzosenallee 21 04289 Leipzig"
      },
      "type": "Feature"
    },
    {
      "geometry": {
        "coordinates": [
          12.3885507,
          51.3616735
        ],
        "type": "Point"
      },
      "id": null,
      "properties": {
        "name": "33. Schule",
        "popupContent": "<b>33. Schule</b><br />Anhalter Straße 1 04129 Leipzig"
      },
      "type": "Feature"
    },
    {
      "geometry": {
        "coordinates": [
          12.3168546981178,
          51.3324455
        ],
        "type": "Point"
      },
      "id": null,
      "properties": {
        "name": "46. Schule",
        "popupContent": "<b>46. Schule</b><br />Saalfelder Straße 29 04179 Leipzig"
      },
      "type": "Feature"
    },
    {
      "geometry": {
        "coordinates": [
          12.3124785949868,
          51.2793741
        ],
        "type": "Point"
      },
      "id": null,
      "properties": {
        "name": "60. Schule",
        "popupContent": "<b>60. Schule</b><br />Seumestraße 93 04249 Leipzig"
      },
      "type": "Feature"
    },
    {
      "geometry": {
        "coordinates": [
          12.4018029,
          51.3781895
        ],
        "type": "Point"
      },
      "id": null,
      "properties": {
        "name": "66. Schule",
        "popupContent": "<b>66. Schule</b><br />Rosenowstraße 56 04357 Leipzig"
      },
      "type": "Feature"
    },
    {
      "geometry": {
        "coordinates": [
          12.4023438552079,
          51.32673885
        ],
        "type": "Point"
      },
      "id": null,
      "properties": {
        "name": "77. Schule",
        "popupContent": "<b>77. Schule</b><br />Riebeckstraße 50 04317 Leipzig"
      },
      "type": "Feature"
    },
    {
      "geometry": {
        "coordinates": [
          12.2622282,
          51.312124
        ],
        "type": "Point"
      },
      "id": null,
      "properties": {
        "name": "78. Schule",
        "popupContent": "<b>78. Schule</b><br />Binzer Straße 14 04207 Leipzig"
      },
      "type": "Feature"
    },
    {
      "geometry": {
        "coordinates": [
          12.3957424059128,
          51.28661025
        ],
        "type": "Point"
      },
      "id": null,
      "properties": {
        "name": "8. Schule",
        "popupContent": "<b>8. Schule</b><br />Wincklerstraße 3/5 04279 Leipzig"
      },
      "type": "Feature"
    },
    {
      "geometry": {
        "coordinates": [
          12.2920058652562,
          51.31407155
        ],
        "type": "Point"
      },
      "id": null,
      "properties": {
        "name": "85. Schule",
        "popupContent": "<b>85. Schule</b><br />Stuttgarter Allee 3 04209 Leipzig"
      },
      "type": "Feature"
    },
    {
      "geometry": {
        "coordinates": [
          12.3905190256945,
          51.29298985
        ],
        "type": "Point"
      },
      "id": null,
      "properties": {
        "name": "9. Schule",
        "popupContent": "<b>9. Schule</b><br />Gersterstraße 74 04279 Leipzig"
      },
      "type": "Feature"
    },
    {
      "geometry": {
        "coordinates": [
          12.2749242722985,
          51.3209269
        ],
        "type": "Point"
      },
      "id": null,
      "properties": {
        "name": "91. Schule",
        "popupContent": "<b>91. Schule</b><br />Uranusstraße 1 04205 Leipzig"
      },
      "type": "Feature"
    },
    {
      "geometry": {
        "coordinates": [
          12.3806187,
          51.3637417
        ],
        "type": "Point"
      },
      "id": null,
      "properties": {
        "name": "Adam-Friedrich-Oeser-Schule",
        "popupContent": "<b>Adam-Friedrich-Oeser-Schule</b><br />Geibelstraße 74 04129 Leipzig"
      },
      "type": "Feature"
    },
    {
      "geometry": {
        "coordinates": [
          12.3344705843578,
          51.3923727
        ],
        "type": "Point"
      },
      "id": null,
      "properties": {
        "name": "Alfred-Kästner-Schule",
        "popupContent": "<b>Alfred-Kästner-Schule</b><br />Gartenwinkel 30 04158 Leipzig"
      },
      "type": "Feature"
    },
    {
      "geometry": {
        "coordinates": [
          12.368352485012,
          51.336296
        ],
        "type": "Point"
      },
      "id": null,
      "properties": {
        "name": "Anna-Magdalena-Bach-Schule",
        "popupContent": "<b>Anna-Magdalena-Bach-Schule</b><br />Manetstraße 8 04109 Leipzig"
      },
      "type": "Feature"
    },
    {
      "geometry": {
        "coordinates": [
          12.4194797,
          51.3558394
        ],
        "type": "Point"
      },
      "id": null,
      "properties": {
        "name": "Astrid-Lindgren-Schule",
        "popupContent": "<b>Astrid-Lindgren-Schule</b><br />Volksgartenstraße 16 04347 Leipzig"
      },
      "type": "Feature"
    },
    {
      "geometry": {
        "coordinates": [
          12.3990424,
          51.3413561
        ],
        "type": "Point"
      },
      "id": null,
      "properties": {
        "name": "August-Bebel-Schule",
        "popupContent": "<b>August-Bebel-Schule</b><br />Husemannstraße 2 04315 Leipzig"
      },
      "type": "Feature"
    },
    {
      "geometry": {
        "coordinates": [
          12.4597839,
          51.3569491
        ],
        "type": "Point"
      },
      "id": null,
      "properties": {
        "name": "Brüder-Grimm-Schule",
        "popupContent": "<b>Brüder-Grimm-Schule</b><br />Goldsternstraße 23 04329 Leipzig"
      },
      "type": "Feature"
    },
    {
      "geometry": {
        "coordinates": [
          12.3862117119424,
          51.369783572166
        ],
        "type": "Point"
      },
      "id": null,
      "properties": {
        "name": "Carl-von-Linné-Schule",
        "popupContent": "<b>Carl-von-Linné-Schule</b><br />Delitzscher Straße 110 04129 Leipzig"
      },
      "type": "Feature"
    },
    {
      "geometry": {
        "coordinates": [
          12.4862889,
          51.3404842
        ],
        "type": "Point"
      },
      "id": null,
      "properties": {
        "name": "Christoph-Arnold-Schule",
        "popupContent": "<b>Christoph-Arnold-Schule</b><br />Gaswerksweg 1 04319 Leipzig"
      },
      "type": "Feature"
    },
    {
      "geometry": {
        "coordinates": [
          12.3726765,
          51.3601327
        ],
        "type": "Point"
      },
      "id": null,
      "properties": {
        "name": "Erich Kästner-Schule",
        "popupContent": "<b>Erich Kästner-Schule</b><br />Erfurter Straße 9 04155 Leipzig"
      },
      "type": "Feature"
    },
    {
      "geometry": {
        "coordinates": [
          12.3407613,
          51.3329048
        ],
        "type": "Point"
      },
      "id": null,
      "properties": {
        "name": "Erich-Zeigner-Schule",
        "popupContent": "<b>Erich-Zeigner-Schule</b><br />Erich-Zeigner-Allee 24/26 04229 Leipzig"
      },
      "type": "Feature"
    },
    {
      "geometry": {
        "coordinates": [
          12.4250043787839,
          51.31658055
        ],
        "type": "Point"
      },
      "id": null,
      "properties": {
        "name": "Franz-Mehring-Schule",
        "popupContent": "<b>Franz-Mehring-Schule</b><br />Gletschersteinstraße 9 04299 Leipzig"
      },
      "type": "Feature"
    },
    {
      "geometry": {
        "coordinates": [
          12.2870296,
          51.3135303
        ],
        "type": "Point"
      },
      "id": null,
      "properties": {
        "name": "Friedrich-Fröbel-Schule",
        "popupContent": "<b>Friedrich-Fröbel-Schule</b><br />Mannheimer Straße 128 c 04209 Leipzig"
      },
      "type": "Feature"
    },
    {
      "geometry": {
        "coordinates": [
          12.3657069,
          51.3634368
        ],
        "type": "Point"
      },
      "id": null,
      "properties": {
        "name": "Geschwister-Scholl-Schule",
        "popupContent": "<b>Geschwister-Scholl-Schule</b><br />Elsbethstraße 1 04155 Leipzig"
      },
      "type": "Feature"
    },
    {
      "geometry": {
        "coordinates": [
          12.4330249,
          51.2872818
        ],
        "type": "Point"
      },
      "id": null,
      "properties": {
        "name": "Heinrich-Mann-Schule",
        "popupContent": "<b>Heinrich-Mann-Schule</b><br />Schwarzenbergweg 4 04289 Leipzig"
      },
      "type": "Feature"
    },
    {
      "geometry": {
        "coordinates": [
          12.3042944319661,
          51.31951965
        ],
        "type": "Point"
      },
      "id": null,
      "properties": {
        "name": "Joachim-Ringelnatz-Schule",
        "popupContent": "<b>Joachim-Ringelnatz-Schule</b><br />Grünauer Allee 35 04209 Leipzig"
      },
      "type": "Feature"
    },
    {
      "geometry": {
        "coordinates": [
          12.3627435792001,
          51.3420536
        ],
        "type": "Point"
      },
      "id": null,
      "properties": {
        "name": "Lessingschule",
        "popupContent": "<b>Lessingschule</b><br />Lessingstraße 27 04109 Leipzig"
      },
      "type": "Feature"
    },
    {
      "geometry": {
        "coordinates": [
          12.4023032056217,
          51.3061549
        ],
        "type": "Point"
      },
      "id": null,
      "properties": {
        "name": "Marienbrunner Schule",
        "popupContent": "<b>Marienbrunner Schule</b><br />An der Märchenwiese 49 04277 Leipzig"
      },
      "type": "Feature"
    },
    {
      "geometry": {
        "coordinates": [
          12.3848816468436,
          51.32610955
        ],
        "type": "Point"
      },
      "id": null,
      "properties": {
        "name": "Pablo-Neruda-Schule",
        "popupContent": "<b>Pablo-Neruda-Schule</b><br />Tarostraße 6 04103 Leipzig"
      },
      "type": "Feature"
    },
    {
      "geometry": {
        "coordinates": [
          12.3216402,
          51.3821039
        ],
        "type": "Point"
      },
      "id": null,
      "properties": {
        "name": "Paul-Robeson-Schule",
        "popupContent": "<b>Paul-Robeson-Schule</b><br />Jungmannstraße 5 04159 Leipzig"
      },
      "type": "Feature"
    },
    {
      "geometry": {
        "coordinates": [
          12.3292579,
          51.3205466
        ],
        "type": "Point"
      },
      "id": null,
      "properties": {
        "name": "Schule am Adler",
        "popupContent": "<b>Schule am Adler</b><br />Antonienstraße 24 04229 Leipzig"
      },
      "type": "Feature"
    },
    {
      "geometry": {
        "coordinates": [
          12.3430001,
          51.3187939
        ],
        "type": "Point"
      },
      "id": null,
      "properties": {
        "name": "Schule am Auwald",
        "popupContent": "<b>Schule am Auwald</b><br />Rödelstraße 6 04229 Leipzig"
      },
      "type": "Feature"
    },
    {
      "geometry": {
        "coordinates": [
          12.3728017369622,
          51.329523
        ],
        "type": "Point"
      },
      "id": null,
      "properties": {
        "name": "Schule am Floßplatz",
        "popupContent": "<b>Schule am Floßplatz</b><br />Hohe Straße 45 04107 Leipzig"
      },
      "type": "Feature"
    },
    {
      "geometry": {
        "coordinates": [
          12.4007960903874,
          51.34526055
        ],
        "type": "Point"
      },
      "id": null,
      "properties": {
        "name": "Schule am Rabet",
        "popupContent": "<b>Schule am Rabet</b><br />Eisenbahnstraße 50 04315 Leipzig"
      },
      "type": "Feature"
    },
    {
      "geometry": {
        "coordinates": [
          12.288814,
          51.3572445
        ],
        "type": "Point"
      },
      "id": null,
      "properties": {
        "name": "Schule Böhlitz-Ehrenberg",
        "popupContent": "<b>Schule Böhlitz-Ehrenberg</b><br />Heinrich-Heine-Straße 64 04178 Leipzig"
      },
      "type": "Feature"
    },
    {
      "geometry": {
        "coordinates": [
          12.3793299,
          51.3097542
        ],
        "type": "Point"
      },
      "id": null,
      "properties": {
        "name": "Schule Connewitz",
        "popupContent": "<b>Schule Connewitz</b><br />Zwenkauer Straße 35 04277 Leipzig"
      },
      "type": "Feature"
    },
    {
      "geometry": {
        "coordinates": [
          12.3009931,
          51.3548332
        ],
        "type": "Point"
      },
      "id": null,
      "properties": {
        "name": "Schule Gundorf",
        "popupContent": "<b>Schule Gundorf</b><br />Leipziger Straße 210 04178 Leipzig"
      },
      "type": "Feature"
    },
    {
      "geometry": {
        "coordinates": [
          12.4658203,
          51.3049215
        ],
        "type": "Point"
      },
      "id": null,
      "properties": {
        "name": "Schule Holzhausen",
        "popupContent": "<b>Schule Holzhausen</b><br />Stötteritzer Landstraße 21 04288 Leipzig"
      },
      "type": "Feature"
    },
    {
      "geometry": {
        "coordinates": [
          12.4588135,
          51.2837931
        ],
        "type": "Point"
      },
      "id": null,
      "properties": {
        "name": "Schule Liebertwolkwitz",
        "popupContent": "<b>Schule Liebertwolkwitz</b><br />Am Angerteich 2 04288 Leipzig"
      },
      "type": "Feature"
    },
    {
      "geometry": {
        "coordinates": [
          12.2615069,
          51.319427
        ],
        "type": "Point"
      },
      "id": null,
      "properties": {
        "name": "Schule Miltitz",
        "popupContent": "<b>Schule Miltitz</b><br />Großmiltitzer Straße 4 04205 Leipzig"
      },
      "type": "Feature"
    },
    {
      "geometry": {
        "coordinates": [
          12.4448004,
          51.3315107
        ],
        "type": "Point"
      },
      "id": null,
      "properties": {
        "name": "Schule Mölkau",
        "popupContent": "<b>Schule Mölkau</b><br />Schulstraße 6 04316 Leipzig"
      },
      "type": "Feature"
    },
    {
      "geometry": {
        "coordinates": [
          12.4528562,
          51.3872849
        ],
        "type": "Point"
      },
      "id": null,
      "properties": {
        "name": "Schule Portitz",
        "popupContent": "<b>Schule Portitz</b><br />Göbschelwitzer Weg 1 04349 Leipzig"
      },
      "type": "Feature"
    },
    {
      "geometry": {
        "coordinates": [
          12.2519192,
          51.3436658
        ],
        "type": "Point"
      },
      "id": null,
      "properties": {
        "name": "Schule Rückmarsdorf",
        "popupContent": "<b>Schule Rückmarsdorf</b><br />An der Friedenseiche 4 04178 Leipzig"
      },
      "type": "Feature"
    },
    {
      "geometry": {
        "coordinates": [
          12.3951403,
          51.4000144
        ],
        "type": "Point"
      },
      "id": null,
      "properties": {
        "name": "Schule Seehausen",
        "popupContent": "<b>Schule Seehausen</b><br />Seehausener Allee 17 04356 Leipzig"
      },
      "type": "Feature"
    },
    {
      "geometry": {
        "coordinates": [
          12.3050184,
          51.3806019
        ],
        "type": "Point"
      },
      "id": null,
      "properties": {
        "name": "Schule Stahmeln",
        "popupContent": "<b>Schule Stahmeln</b><br />Stahmelner Höhe 1 04159 Leipzig"
      },
      "type": "Feature"
    },
    {
      "geometry": {
        "coordinates": [
          12.372415,
          51.3935693
        ],
        "type": "Point"
      },
      "id": null,
      "properties": {
        "name": "Schule Wiederitzsch",
        "popupContent": "<b>Schule Wiederitzsch</b><br />Zur Schule 11 04158 Leipzig"
      },
      "type": "Feature"
    },
    {
      "geometry": {
        "coordinates": [
          12.4644781,
          51.3531771
        ],
        "type": "Point"
      },
      "id": null,
      "properties": {
        "name": "Theodor-Körner-Schule",
        "popupContent": "<b>Theodor-Körner-Schule</b><br />Schlehenweg 32 04329 Leipzig"
      },
      "type": "Feature"
    },
    {
      "geometry": {
        "coordinates": [
          12.3450449,
          51.3716135
        ],
        "type": "Point"
      },
      "id": null,
      "properties": {
        "name": "Wilhelm-Hauff-Schule",
        "popupContent": "<b>Wilhelm-Hauff-Schule</b><br />Diderot Straße 37 04159 Leipzig"
      },
      "type": "Feature"
    },
    {
      "geometry": {
        "coordinates": [
          12.4034875410586,
          51.34846075
        ],
        "type": "Point"
      },
      "id": null,
      "properties": {
        "name": "Wilhelm-Wander-Schule",
        "popupContent": "<b>Wilhelm-Wander-Schule</b><br />Schulze-Delitzsch-Straße 23 04315 Leipzig"
      },
      "type": "Feature"
    }
  ],
  "type": "FeatureCollection"
}